,Adresa BM,longitude,latitude
0,"VEL.GORICA, TRG S.RADIĆA 5, VELIKA GORICA, Hrvatska",16.067043,45.711685
1,"VEL.GORICA, TRG S. RADIĆA 5, VELIKA GORICA, Hrvatska",16.067043,45.711685
2,"VEL.GORICA, S. KOLARA 39, VELIKA GORICA, Hrvatska",16.0685405,45.7104317
3,"VEL.GORICA, V. VIDRIĆA 2, VELIKA GORICA, Hrvatska",16.0668033,45.7109307
4,"VEL.GORICA, CVJETNO NASELJE 18 A, VELIKA GORICA, Hrvatska",16.0697135,45.7182871
5,"VEL.GORICA, KRALJA TOMAŠEVIĆA 21, VELIKA GORICA, Hrvatska",16.0746526,45.7192344
6,"VELIKA GORICA, KRALJA TOMAŠEVIĆA 21, VELIKA GORICA, Hrvatska",16.0746526,45.7192344
7,"VELIKA GORICA, VINKOVAČKA 2, VELIKA GORICA, Hrvatska",16.0576383,45.7226432
8,"VEL.GORICA, J. PUCEKOVIĆA 4, VELIKA GORICA, Hrvatska",16.0674921,45.7159355
9,"VELIKA GORICA, J. PUCEKOVIĆA 4, VELIKA GORICA, Hrvatska",16.0674921,45.7159355
10,"VELIKA GORICA, J. PUCEKOVIĆA 4, VELIKA GORICA, Hrvatska",16.0674921,45.7159355
11,"VELIKA GORICA, R. BOŠKOVIĆA 13, VELIKA GORICA, Hrvatska",16.0752431,45.7142122
12,"VELIKA GORICA, R. BOŠKOVIĆA 13, VELIKA GORICA, Hrvatska",16.0752431,45.7142122
13,"VELIKA GORICA, ŠKOLSKA ULICA 1, VELIKA GORICA, Hrvatska",16.0750911,45.71171229999999
14,"VELIKA GORICA, ZAGREBAČKA 3, VELIKA GORICA, Hrvatska",16.0752431,45.7142122
15,"VELIKA GORICA, J. PUCEKOVIĆA 4, VELIKA GORICA, Hrvatska",16.0674921,45.7159355
16,"VELIKA GORICA, S. KOLARA 17, VELIKA GORICA, Hrvatska",16.0688108,45.7108527
17,"VELIKA GORICA, J. PUCEKOVIĆA 4, VELIKA GORICA, Hrvatska",16.0674921,45.7159355
18,"VELIKA GORICA, M. SLATINSKOG 4, VELIKA GORICA, Hrvatska",16.0752431,45.7142122
19,"VELIKA GORICA, HORVATOVA 57, VELIKA GORICA, Hrvatska",16.0722794,45.7032778
20,"VELIKA GORICA, SPORTSKA 2, VELIKA GORICA, Hrvatska",16.0752431,45.7142122
21,"VELIKA GORICA, Š. BREŠČENSKOG 18, VELIKA GORICA, Hrvatska",16.0671199,45.73031330000001
22,"VELIKA GORICA, RAKARSKA 55, VELIKA GORICA, Hrvatska",16.0855556,45.7255845
23,"BAPČE 12 A, VELIKA GORICA, Hrvatska",16.1011037,45.74421830000001
24,"BUKOVČAK 18, VELIKA GORICA, Hrvatska",15.9415222,45.62626660000001
25,"BUŠEVEC BB, VELIKA GORICA, Hrvatska",16.1159484,45.634072
26,"CEROVSKI VRH 3 A, VELIKA GORICA, Hrvatska",15.9526477,45.5822024
27,"POLJANA ČIČKA 81, VELIKA GORICA, Hrvatska",16.1649177,45.7047315
28,"ČRNKOVEC 55, VELIKA GORICA, Hrvatska",16.1204462,45.7507353
29,"DONJA LOMNICA, ŠKOLSKA 20 A, VELIKA GORICA, Hrvatska",16.0196011,45.7111037
30,"PODOTOČJE DONJE, DAVUTOVIĆI 15, VELIKA GORICA, Hrvatska",16.1458826,45.6954316
31,"DUBRANEC 13, VELIKA GORICA, Hrvatska",15.9673397,45.6120106
32,"GORNJA LOMNICA BB, VELIKA GORICA, Hrvatska",16.0012546,45.7156037
33,"PODOTOČJE GORNJE 41, VELIKA GORICA, Hrvatska",16.1322004,45.6832945
34,"GRADIĆI, GRADIĆKA 33, VELIKA GORICA, Hrvatska",16.0376769,45.704182
35,"GUDCI 52 A, VELIKA GORICA, Hrvatska",15.9844112,45.6591663
36,"GUSTELNICA 14 A, VELIKA GORICA, Hrvatska",15.9759259,45.6064409
37,"JAGODNO 45, VELIKA GORICA, Hrvatska",16.1411598,45.706129
38,"KOBILIĆ 74, VELIKA GORICA, Hrvatska",16.101701,45.73202320000001
39,"PETINA 32, VELIKA GORICA, Hrvatska",16.0879199,45.75623909999999
40,"KOZJAČA, ŠKOLSKA CESTA 6, VELIKA GORICA, Hrvatska",16.0085834,45.6150213
41,"KUČE, PETROVA 24/1, VELIKA GORICA, Hrvatska",16.1396238,45.6757358
42,"LAZINA ČIČKA 24/1, VELIKA GORICA, Hrvatska",16.1238975,45.72361919999999
43,"LEKNENO, VELIKOGORIČKA BB, VELIKA GORICA, Hrvatska",16.1347849,45.7553993
44,"LUKAVEC, DOLENSKA 1, VELIKA GORICA, Hrvatska",16.0248396,45.7066135
45,"MARKUŠEVEC 12 A, VELIKA GORICA, Hrvatska",16.0745586,45.71407199999999
46,"MIČEVEC, TRG KARDINALA A. STEPINCA 7, VELIKA GORICA, Hrvatska",16.0559618,45.7523272
47,"MRACLIN, BRAĆE RADIĆA 89 A, VELIKA GORICA, Hrvatska",16.0964493,45.66544589999999
48,"NOVO ČIČE, TRG ANTUNA CVETKOVIĆA 27, VELIKA GORICA, Hrvatska",16.1259574,45.7015646
49,"OGULINEC, OGULINEČKA 11 A, VELIKA GORICA, Hrvatska",16.1243752,45.6210075
50,"OKUJE BB, VELIKA GORICA, Hrvatska",16.0726561,45.6719191
51,"PETROVINA, PETROVINSKA ULICA 34 A, VELIKA GORICA, Hrvatska",16.0311118,45.6926047
52,"RAKITOVEC 310, VELIKA GORICA, Hrvatska",16.1405054,45.652699
53,"RIBNICA, ULICA HRVATSKOG PROLJEĆA 87, VELIKA GORICA, Hrvatska",16.1501837,45.7160093
54,"SELNICA ŠČITARJEVSKA BB, VELIKA GORICA, Hrvatska",16.0998707,45.75010830000001
55,"SOP BUKEVSKI BB, VELIKA GORICA, Hrvatska",16.2157615,45.7413349
56,"STARO ČIČE, J. HABDELIĆA 21, VELIKA GORICA, Hrvatska",16.1207409,45.6925847
57,"STRMEC BUKEVSKI 70, VELIKA GORICA, Hrvatska",16.1630566,45.7451867
58,"ŠČITARJEVO 104, VELIKA GORICA, Hrvatska",16.1176061,45.7725739
59,"ŠILJAKOVINA, I. ŠABANA 2 C, VELIKA GORICA, Hrvatska",16.0224011,45.6334418
60,"TUROPOLJE, PROLETERSKA BB, VELIKA GORICA, Hrvatska",16.1367631,45.6480437
61,"VELIKA BUNA, TUROPOLJSKO POSAVSKOG ODREDA  107, VELIKA GORICA, Hrvatska",16.0702016,45.6266843
62,"MALOBUNSKA CESTA 2, VELIKA GORICA, Hrvatska",16.0547732,45.6442005
63,"KLJUČIĆKA CESTA 80, VELIKA GORICA, Hrvatska",16.0415831,45.620007
64,"VELIKA MLAKA, BRUNE BUŠIĆA 7, VELIKA GORICA, Hrvatska",16.0246069,45.738104
65,"VELIKA MLAKA, TRG MAJKE HRVATICE 17, VELIKA GORICA, Hrvatska",16.0302443,45.7362107
66,"VUKOMERIĆ 17, VELIKA GORICA, Hrvatska",15.9489918,45.6106136
67,"VUKOVINA, ŠKOLSKA ULICA 8A, VELIKA GORICA, Hrvatska",16.0726108,45.7127809
68,"MEDULIĆEVA ULICA 36, ZAGREB - I. IZBORNA JEDINICA, Hrvatska",15.9666043,45.8095156
69,"MEDULIĆEVA ULICA 36, ZAGREB - I. IZBORNA JEDINICA, Hrvatska",15.9666043,45.8095156
70,"ULICA PAVLA HATZA 8, ZAGREB - I. IZBORNA JEDINICA, Hrvatska",15.9804853,45.8074988
71,"ULICA PAVLA HATZA 8, ZAGREB - I. IZBORNA JEDINICA, Hrvatska",15.9804853,45.8074988
72,"GUNDULIĆEVA ULICA 23A, ZAGREB - I. IZBORNA JEDINICA, Hrvatska",15.9722512,45.8100437
73,"GUNDULIĆEVA ULICA 23A, ZAGREB - I. IZBORNA JEDINICA, Hrvatska",15.9722512,45.8100437
74,"ULICA RAČKOGA 4, ZAGREB - I. IZBORNA JEDINICA, Hrvatska",15.9842869,45.81121
75,"ULICA JURJA KRIŽANIĆA 4, ZAGREB - I. IZBORNA JEDINICA, Hrvatska",15.9865498,45.8084874
76,"ULICA JURJA KRIŽANIĆA 4, ZAGREB - I. IZBORNA JEDINICA, Hrvatska",15.9865498,45.8084874
77,"PRERADOVIĆEVA ULICA 29, ZAGREB - I. IZBORNA JEDINICA, Hrvatska",15.9747335,45.808887
78,"PRERADOVIĆEVA ULICA 29, ZAGREB - I. IZBORNA JEDINICA, Hrvatska",15.9747335,45.808887
79,"ULICA BALTAZARA BOGIŠIĆA 13, ZAGREB - I. IZBORNA JEDINICA, Hrvatska",15.9977497,45.8095379
80,"ULICA BALTAZARA BOGIŠIĆA 13, ZAGREB - I. IZBORNA JEDINICA, Hrvatska",15.9977497,45.8095379
81,"ULICA LJUDEVITA POSAVSKOG 10, ZAGREB - I. IZBORNA JEDINICA, Hrvatska",15.9935122,45.8080893
82,"ULICA LJUDEVITA POSAVSKOG 10, ZAGREB - I. IZBORNA JEDINICA, Hrvatska",15.9935122,45.8080893
83,"ULICA MATKA LAGINJE 11, ZAGREB - I. IZBORNA JEDINICA, Hrvatska",15.9923357,45.8132137
84,"ULICA MATKA LAGINJE 13, ZAGREB - I. IZBORNA JEDINICA, Hrvatska",15.9928602,45.813218
85,"ULICA ISIDORA KRŠNJAVOGA 2, ZAGREB - I. IZBORNA JEDINICA, Hrvatska",15.9666451,45.8076658
86,"ULICA ISIDORA KRŠNJAVOGA 2, ZAGREB - I. IZBORNA JEDINICA, Hrvatska",15.9666451,45.8076658
87,"ULICA MATKA LAGINJE 13, ZAGREB - I. IZBORNA JEDINICA, Hrvatska",15.9928602,45.813218
88,"ULICA MATKA LAGINJE 13, ZAGREB - I. IZBORNA JEDINICA, Hrvatska",15.9928602,45.813218
89,"ULICA MATKA LAGINJE 13, ZAGREB - I. IZBORNA JEDINICA, Hrvatska",15.9928602,45.813218
90,"ULICA MATKA LAGINJE 13, ZAGREB - I. IZBORNA JEDINICA, Hrvatska",15.9928602,45.813218
91,"ULICA JURJA KRIŽANIĆA 4A, ZAGREB - I. IZBORNA JEDINICA, Hrvatska",15.9880712,45.8085337
92,"ULICA JURJA KRIŽANIĆA 4A, ZAGREB - I. IZBORNA JEDINICA, Hrvatska",15.9880712,45.8085337
93,"PRIMORSKA ULICA 32, ZAGREB - I. IZBORNA JEDINICA, Hrvatska",15.9606737,45.8095599
94,"KRAJIŠKA ULICA 9, ZAGREB - I. IZBORNA JEDINICA, Hrvatska",15.9589507,45.8119175
95,"KRAJIŠKA ULICA 9, ZAGREB - I. IZBORNA JEDINICA, Hrvatska",15.9589507,45.8119175
96,"PALMOTIĆEVA ULICA 30, ZAGREB - I. IZBORNA JEDINICA, Hrvatska",15.9816747,45.810349
97,"PALMOTIĆEVA ULICA 30, ZAGREB - I. IZBORNA JEDINICA, Hrvatska",15.9816747,45.810349
98,"TKALČIĆEVA ULICA 33 DVORANA, PRIZEMLJE DESNO, ZAGREB - I. IZBORNA JEDINICA, Hrvatska",15.9764,45.8157755
99,"ULICA SV. ĆIRILA I METODA 5, ZAGREB - I. IZBORNA JEDINICA, Hrvatska",15.9733825,45.8157638
100,"ULICA SV. ĆIRILA I METODA 5, ZAGREB - I. IZBORNA JEDINICA, Hrvatska",15.9733825,45.8157638
101,"ALEJA HERMANNA BOLLEA 27, ZAGREB - I. IZBORNA JEDINICA, Hrvatska",15.9837322,45.837388
102,"KSAVER 203, ZAGREB - I. IZBORNA JEDINICA, Hrvatska",15.9761004,45.8314815
103,"ORLOVAC 2, ZAGREB - I. IZBORNA JEDINICA, Hrvatska",15.9752116,45.8375151
104,"RADNIČKI DOL 1, ZAGREB - I. IZBORNA JEDINICA, Hrvatska",15.9643264,45.8142006
105,"HERCEGOVAČKA ULICA 108, ZAGREB - I. IZBORNA JEDINICA, Hrvatska",15.9596653,45.8217688
106,"KRALJEVEC 11, ZAGREB - I. IZBORNA JEDINICA, Hrvatska",15.9682373,45.8287045
107,"MEDVEŠČAK 2, ZAGREB - I. IZBORNA JEDINICA, Hrvatska",15.9795805,45.8196771
108,"ULICA MILANA ŠUFFLAYA 2, ZAGREB - I. IZBORNA JEDINICA, Hrvatska",15.9842646,45.8242668
109,"NOVA VES 36, ZAGREB - I. IZBORNA JEDINICA, Hrvatska",15.9784243,45.8220824
110,"MLINARSKA CESTA 34, ZAGREB - I. IZBORNA JEDINICA, Hrvatska",15.9774325,45.8263334
111,"ULICA JAKOVA GOTOVCA 7, ZAGREB - I. IZBORNA JEDINICA, Hrvatska",15.994052,45.81483730000001
112,"JURKOVIĆEVA ULICA 14, ZAGREB - I. IZBORNA JEDINICA, Hrvatska",15.9906132,45.8159068
113,"RIBNJAK 1, ZAGREB - I. IZBORNA JEDINICA, Hrvatska",15.9797765,45.818208
114,"HERCEGOVAČKA ULICA 108, ZAGREB - I. IZBORNA JEDINICA, Hrvatska",15.9596653,45.8217688
115,"HERCEGOVAČKA ULICA 108, ZAGREB - I. IZBORNA JEDINICA, Hrvatska",15.9596653,45.8217688
116,"KRAJIŠKA ULICA 9, ZAGREB - I. IZBORNA JEDINICA, Hrvatska",15.9589507,45.8119175
117,"VOĆARSKA CESTA 71, ZAGREB - I. IZBORNA JEDINICA, Hrvatska",15.9876329,45.8182488
118,"ULICA IVANA GORANA KOVAČIĆA 31, ZAGREB - I. IZBORNA JEDINICA, Hrvatska",15.9688531,45.8199014
119,"JABUKOVAC 28, ZAGREB - I. IZBORNA JEDINICA, Hrvatska",15.9714367,45.8237871
120,"GORNJE PREKRIŽJE 48, ZAGREB - I. IZBORNA JEDINICA, Hrvatska",15.967129,45.84367229999999
121,"KRAJIŠKA ULICA 9, ZAGREB - I. IZBORNA JEDINICA, Hrvatska",15.9589507,45.8119175
122,"VOĆARSKA CESTA 71, ZAGREB - I. IZBORNA JEDINICA, Hrvatska",15.9876329,45.8182488
123,"VOĆARSKA CESTA 71, ZAGREB - I. IZBORNA JEDINICA, Hrvatska",15.9876329,45.8182488
124,"ŠETALIŠTE JURIJA GAGARINA 10, ZAGREB - I. IZBORNA JEDINICA, Hrvatska",15.9625446,45.7960859
125,"ŠETALIŠTE JURIJA GAGARINA 10, ZAGREB - I. IZBORNA JEDINICA, Hrvatska",15.9625446,45.7960859
126,"CVJETNA CESTA 17, ZAGREB - I. IZBORNA JEDINICA, Hrvatska",15.9640291,45.7912781
127,"ULICA GRADA VUKOVARA 269, ZAGREB - I. IZBORNA JEDINICA, Hrvatska",15.9999629,45.8017942
128,"NALJEŠKOVIĆEVA ULICA 4, ZAGREB - I. IZBORNA JEDINICA, Hrvatska",15.993509,45.7973522
129,"NALJEŠKOVIĆEVA ULICA 4, ZAGREB - I. IZBORNA JEDINICA, Hrvatska",15.993509,45.7973522
130,"NALJEŠKOVIĆEVA ULICA 4, ZAGREB - I. IZBORNA JEDINICA, Hrvatska",15.993509,45.7973522
131,"NALJEŠKOVIĆEVA ULICA 4, ZAGREB - I. IZBORNA JEDINICA, Hrvatska",15.993509,45.7973522
132,"KOTURAŠKA CESTA 75, ZAGREB - I. IZBORNA JEDINICA, Hrvatska",15.964769,45.8021997
133,"TRNJANSKA CESTA 11F, ZAGREB - I. IZBORNA JEDINICA, Hrvatska",15.9829428,45.8012395
134,"KRČKA ULICA 3, ZAGREB - I. IZBORNA JEDINICA, Hrvatska",15.9734495,45.79812039999999
135,"LOMNIČKA ULICA 3, ZAGREB - I. IZBORNA JEDINICA, Hrvatska",15.9587555,45.7920914
136,"RAPSKA ULICA 3, ZAGREB - I. IZBORNA JEDINICA, Hrvatska",15.9989563,45.7999146
137,"RAPSKA ULICA 3, ZAGREB - I. IZBORNA JEDINICA, Hrvatska",15.9989563,45.7999146
138,"RAPSKA ULICA 3, ZAGREB - I. IZBORNA JEDINICA, Hrvatska",15.9989563,45.7999146
139,"RAPSKA ULICA 3, ZAGREB - I. IZBORNA JEDINICA, Hrvatska",15.9989563,45.7999146
140,"RAPSKA ULICA 3, ZAGREB - I. IZBORNA JEDINICA, Hrvatska",15.9989563,45.7999146
141,"ULICA VLADIMIRA RUŽDJAKA 22, ZAGREB - I. IZBORNA JEDINICA, Hrvatska",15.9942925,45.7897078
142,"TRNJANSKA CESTA 128, ZAGREB - I. IZBORNA JEDINICA, Hrvatska",15.9799383,45.7915225
143,"ULICA VLADIMIRA RUŽDJAKA 2A, ZAGREB - I. IZBORNA JEDINICA, Hrvatska",15.9924409,45.7898189
144,"ULICA VLADIMIRA RUŽDJAKA 2A, ZAGREB - I. IZBORNA JEDINICA, Hrvatska",15.9924409,45.7898189
145,"ULICA VLADIMIRA RUŽDJAKA 2A, ZAGREB - I. IZBORNA JEDINICA, Hrvatska",15.9924409,45.7898189
146,"ULICA VLADIMIRA RUŽDJAKA 2A, ZAGREB - I. IZBORNA JEDINICA, Hrvatska",15.9924409,45.7898189
147,"ULICA VLADIMIRA RUŽDJAKA 2A, ZAGREB - I. IZBORNA JEDINICA, Hrvatska",15.9924409,45.7898189
148,"ULICA VLADIMIRA RUŽDJAKA 21, ZAGREB - I. IZBORNA JEDINICA, Hrvatska",15.995947,45.78996009999999
149,"TRNJANSKA CESTA 33, ZAGREB - I. IZBORNA JEDINICA, Hrvatska",15.9808034,45.7987306
150,"KRUGE 46, ZAGREB - I. IZBORNA JEDINICA, Hrvatska",15.987175,45.7981929
151,"VESLAČKA ULICA 17A, ZAGREB - I. IZBORNA JEDINICA, Hrvatska",15.9571081,45.7890556
152,"ULICA LAVOSLAVA RUŽIČKE 26, ZAGREB - I. IZBORNA JEDINICA, Hrvatska",15.9672793,45.796796
153,"ULICA LAVOSLAVA RUŽIČKE 26, ZAGREB - I. IZBORNA JEDINICA, Hrvatska",15.9672793,45.796796
154,"TRNAC 42, ZAGREB - I. IZBORNA JEDINICA, Hrvatska",16.0107179,45.8378686
155,"TRNAC 42, ZAGREB - I. IZBORNA JEDINICA, Hrvatska",16.0107179,45.8378686
156,"VIII. POŽARINJE 2A, ZAGREB - I. IZBORNA JEDINICA, Hrvatska",16.0158036,45.8363296
157,"MOGILSKA ULICA 50, ZAGREB - I. IZBORNA JEDINICA, Hrvatska",16.0122143,45.8384774
158,"IX. BUKOVAČKI OGRANAK 2, ZAGREB - I. IZBORNA JEDINICA, Hrvatska",16.0083673,45.8359313
159,"ULICA IVANA FILIPOVIĆA 1, ZAGREB - I. IZBORNA JEDINICA, Hrvatska",15.981919,45.8150108
160,"ULICA IVANA FILIPOVIĆA 1, ZAGREB - I. IZBORNA JEDINICA, Hrvatska",15.981919,45.8150108
161,"ULICA IVANA FILIPOVIĆA 1, ZAGREB - I. IZBORNA JEDINICA, Hrvatska",15.981919,45.8150108
162,"DOBRI DOL 49, ZAGREB - I. IZBORNA JEDINICA, Hrvatska",15.9980229,45.8244213
163,"JORDANOVAC 108, ZAGREB - I. IZBORNA JEDINICA, Hrvatska",16.0007018,45.8267289
164,"JORDANOVAC 23, ZAGREB - I. IZBORNA JEDINICA, Hrvatska",16.0053746,45.8199962
165,"JAZBINSKI ODVOJAK II. 6, ZAGREB - I. IZBORNA JEDINICA, Hrvatska",16.0173286,45.8455542
166,"JAZBINSKI ODVOJAK II. 6, ZAGREB - I. IZBORNA JEDINICA, Hrvatska",16.0173286,45.8455542
167,"ULICA KRALJA ZVONIMIRA 68, ZAGREB - I. IZBORNA JEDINICA, Hrvatska",16.0008744,45.8117665
168,"ULICA METELA OŽEGOVIĆA 5, ZAGREB - I. IZBORNA JEDINICA, Hrvatska",16.0000765,45.8152147
169,"BIJENIČKA CESTA 97, ZAGREB - I. IZBORNA JEDINICA, Hrvatska",15.994484,45.8324655
170,"BIJENIČKA CESTA 97, ZAGREB - I. IZBORNA JEDINICA, Hrvatska",15.994484,45.8324655
171,"KOZJAK 27, ZAGREB - I. IZBORNA JEDINICA, Hrvatska",16.0009136,45.83197089999999
172,"BARUTANSKI BREG 5, ZAGREB - I. IZBORNA JEDINICA, Hrvatska",16.0096214,45.82599140000001
173,"BARUTANSKI BREG 5, ZAGREB - I. IZBORNA JEDINICA, Hrvatska",16.0096214,45.82599140000001
174,"REBAR 33, ZAGREB - I. IZBORNA JEDINICA, Hrvatska",16.0001008,45.8305038
175,"ALEJA ANTUNA AUGUSTINČIĆA 12, ZAGREB - I. IZBORNA JEDINICA, Hrvatska",16.0261874,45.8184722
176,"ALEJA ANTUNA AUGUSTINČIĆA 12, ZAGREB - I. IZBORNA JEDINICA, Hrvatska",16.0261874,45.8184722
177,"ALEJA ANTUNA AUGUSTINČIĆA 12, ZAGREB - I. IZBORNA JEDINICA, Hrvatska",16.0261874,45.8184722
178,"ALEJA ANTUNA AUGUSTINČIĆA 12, ZAGREB - I. IZBORNA JEDINICA, Hrvatska",16.0261874,45.8184722
179,"ALEJA ANTUNA AUGUSTINČIĆA 12, ZAGREB - I. IZBORNA JEDINICA, Hrvatska",16.0261874,45.8184722
180,"ALEJA ANTUNA AUGUSTINČIĆA 12, ZAGREB - I. IZBORNA JEDINICA, Hrvatska",16.0261874,45.8184722
181,"JORDANOVAC 23, ZAGREB - I. IZBORNA JEDINICA, Hrvatska",16.0053746,45.8199962
182,"JORDANOVAC 23, ZAGREB - I. IZBORNA JEDINICA, Hrvatska",16.0053746,45.8199962
183,"JORDANOVAC 8, ZAGREB - I. IZBORNA JEDINICA, Hrvatska",16.0069929,45.8191839
184,"VINEC 1, ZAGREB - I. IZBORNA JEDINICA, Hrvatska",15.9927084,45.8513431
185,"VINEC 1, ZAGREB - I. IZBORNA JEDINICA, Hrvatska",15.9927084,45.8513431
186,"REMETE 99A, ZAGREB - I. IZBORNA JEDINICA, Hrvatska",15.9909037,45.8482612
187,"REMETE 99A, ZAGREB - I. IZBORNA JEDINICA, Hrvatska",15.9909037,45.8482612
188,"ULICA AUGUSTA HARAMBAŠIĆA 18, ZAGREB - I. IZBORNA JEDINICA, Hrvatska",16.0074233,45.8161312
189,"ULICA AUGUSTA HARAMBAŠIĆA 18, ZAGREB - I. IZBORNA JEDINICA, Hrvatska",16.0074233,45.8161312
190,"VUKOMEREC 41, ZAGREB - I. IZBORNA JEDINICA, Hrvatska",16.0451216,45.8083406
191,"VUKOMEREC 43, ZAGREB - I. IZBORNA JEDINICA, Hrvatska",16.0454711,45.8083003
192,"ULICA KSAVERA ŠANDORA GJALSKOG 29, ZAGREB - I. IZBORNA JEDINICA, Hrvatska",16.0245235,45.8114306
193,"ULICA KSAVERA ŠANDORA GJALSKOG 29, ZAGREB - I. IZBORNA JEDINICA, Hrvatska",16.0245235,45.8114306
194,"ULICA KSAVERA ŠANDORA GJALSKOG 29, ZAGREB - I. IZBORNA JEDINICA, Hrvatska",16.0245235,45.8114306
195,"IVANIĆGRADSKA ULICA 24, ZAGREB - I. IZBORNA JEDINICA, Hrvatska",16.0174371,45.8075274
196,"IVANIĆGRADSKA ULICA 24, ZAGREB - I. IZBORNA JEDINICA, Hrvatska",16.0174371,45.8075274
197,"FERENŠČICA II. 9A, ZAGREB - I. IZBORNA JEDINICA, Hrvatska",16.0240979,45.8009077
198,"FERENŠČICA II. 9A, ZAGREB - I. IZBORNA JEDINICA, Hrvatska",16.0240979,45.8009077
199,"FERENŠČICA II. 9A, ZAGREB - I. IZBORNA JEDINICA, Hrvatska",16.0240979,45.8009077
200,"FERENŠČICA II. 9A, ZAGREB - I. IZBORNA JEDINICA, Hrvatska",16.0240979,45.8009077
201,"ULICA JOZE LAURENČIĆA 1, ZAGREB - I. IZBORNA JEDINICA, Hrvatska",16.0049709,45.79395299999999
202,"ULICA JOZE LAURENČIĆA 1, ZAGREB - I. IZBORNA JEDINICA, Hrvatska",16.0049709,45.79395299999999
203,"ULICA FRANJE HORVATA KIŠA 12, ZAGREB - I. IZBORNA JEDINICA, Hrvatska",16.0047305,45.7942583
204,"MAROFSKA ULICA 1A, ZAGREB - I. IZBORNA JEDINICA, Hrvatska",16.1132233,45.8009051
205,"KOZARI BOK IX. ODVOJAK 11, ZAGREB - I. IZBORNA JEDINICA, Hrvatska",16.0491955,45.7942931
206,"KOZARI BOK IX. ODVOJAK 11, ZAGREB - I. IZBORNA JEDINICA, Hrvatska",16.0491955,45.7942931
207,"ULICA NEDE KRMPOTIĆ 7, ZAGREB - I. IZBORNA JEDINICA, Hrvatska",16.0503828,45.7937295
208,"ULICA NEDE KRMPOTIĆ 7, ZAGREB - I. IZBORNA JEDINICA, Hrvatska",16.0503828,45.7937295
209,"ULICA NEDE KRMPOTIĆ 7, ZAGREB - I. IZBORNA JEDINICA, Hrvatska",16.0503828,45.7937295
210,"ULICA NEDE KRMPOTIĆ 7, ZAGREB - I. IZBORNA JEDINICA, Hrvatska",16.0503828,45.7937295
211,"ULICA NEDE KRMPOTIĆ 7, ZAGREB - I. IZBORNA JEDINICA, Hrvatska",16.0503828,45.7937295
212,"ULICA PETRA PETROVIĆA NJEGOŠA 10, ZAGREB - I. IZBORNA JEDINICA, Hrvatska",16.0090183,45.8128777
213,"ULICA PETRA PETROVIĆA NJEGOŠA 10, ZAGREB - I. IZBORNA JEDINICA, Hrvatska",16.0090183,45.8128777
214,"TRG JOHNA FITZGERALDA KENNEDYJA 8, ZAGREB - I. IZBORNA JEDINICA, Hrvatska",16.0114208,45.8158143
215,"TRG JOHNA FITZGERALDA KENNEDYJA 8, ZAGREB - I. IZBORNA JEDINICA, Hrvatska",16.0114208,45.8158143
216,"I. PETRUŠEVEC 1, ZAGREB - I. IZBORNA JEDINICA, Hrvatska",16.0559845,45.7748074
217,"I. PETRUŠEVEC 1, ZAGREB - I. IZBORNA JEDINICA, Hrvatska",16.0559845,45.7748074
218,"I. RESNIK 48, ZAGREB - I. IZBORNA JEDINICA, Hrvatska",16.0812907,45.8029595
219,"SAVICA I. 2, ZAGREB - I. IZBORNA JEDINICA, Hrvatska",16.0180786,45.7927741
220,"ULICA DAVORA ZBILJSKOG 7, ZAGREB - I. IZBORNA JEDINICA, Hrvatska",16.0088849,45.7874229
221,"ULICA DAVORA ZBILJSKOG 7, ZAGREB - I. IZBORNA JEDINICA, Hrvatska",16.0088849,45.7874229
222,"ULICA DAVORA ZBILJSKOG 7, ZAGREB - I. IZBORNA JEDINICA, Hrvatska",16.0088849,45.7874229
223,"IVANIĆGRADSKA ULICA 41A, ZAGREB - I. IZBORNA JEDINICA, Hrvatska",16.0178038,45.80822999999999
224,"KRIŠKA ULICA 20, ZAGREB - I. IZBORNA JEDINICA, Hrvatska",16.0205677,45.8086938
225,"ZAPOLJSKA ULICA 1, ZAGREB - I. IZBORNA JEDINICA, Hrvatska",16.0206214,45.8060542
226,"ZAPOLJSKA ULICA 32, ZAGREB - I. IZBORNA JEDINICA, Hrvatska",16.0236199,45.8073771
227,"ZAPOLJSKA ULICA 32, ZAGREB - I. IZBORNA JEDINICA, Hrvatska",16.0236199,45.8073771
228,"POREČKA ULICA 7A, ZAGREB - I. IZBORNA JEDINICA, Hrvatska",16.0479196,45.8086093
229,"ŽITNJAK 61, ZAGREB - I. IZBORNA JEDINICA, Hrvatska",16.0612897,45.7818273
230,"ŽITNJAK 61, ZAGREB - I. IZBORNA JEDINICA, Hrvatska",16.0612897,45.7818273
231,"BUZINSKA CESTA 20, ZAGREB - I. IZBORNA JEDINICA, Hrvatska",15.994304,45.7516066
232,"ŠKOLSKI PRILAZ 7, ZAGREB - I. IZBORNA JEDINICA, Hrvatska",15.9959504,45.7642063
233,"ŠKOLSKI PRILAZ 7, ZAGREB - I. IZBORNA JEDINICA, Hrvatska",15.9959504,45.7642063
234,"ŠKOLSKI PRILAZ 7, ZAGREB - I. IZBORNA JEDINICA, Hrvatska",15.9959504,45.7642063
235,"ŠKOLSKI PRILAZ 7, ZAGREB - I. IZBORNA JEDINICA, Hrvatska",15.9959504,45.7642063
236,"ŠKOLSKI PRILAZ 7, ZAGREB - I. IZBORNA JEDINICA, Hrvatska",15.9959504,45.7642063
237,"ŠKOLSKI PRILAZ 7, ZAGREB - I. IZBORNA JEDINICA, Hrvatska",15.9959504,45.7642063
238,"ŠKOLSKI PRILAZ 7, ZAGREB - I. IZBORNA JEDINICA, Hrvatska",15.9959504,45.7642063
239,"ŠKOLSKI PRILAZ 7, ZAGREB - I. IZBORNA JEDINICA, Hrvatska",15.9959504,45.7642063
240,"ŠKOLSKI PRILAZ 7, ZAGREB - I. IZBORNA JEDINICA, Hrvatska",15.9959504,45.7642063
241,"MEŠTROVIĆEV TRG 1G, ZAGREB - I. IZBORNA JEDINICA, Hrvatska",15.9964429,45.7794248
242,"GATA 1, ZAGREB - I. IZBORNA JEDINICA, Hrvatska",16.0157539,45.7607304
243,"GATA 1, ZAGREB - I. IZBORNA JEDINICA, Hrvatska",16.0157539,45.7607304
244,"ULICA STJEPANA GRADIĆA 4, ZAGREB - I. IZBORNA JEDINICA, Hrvatska",15.9864553,45.7658692
245,"ULICA STJEPANA GRADIĆA 4, ZAGREB - I. IZBORNA JEDINICA, Hrvatska",15.9864553,45.7658692
246,"ULICA STJEPANA GRADIĆA 4, ZAGREB - I. IZBORNA JEDINICA, Hrvatska",15.9864553,45.7658692
247,"ULICA STJEPANA GRADIĆA 4, ZAGREB - I. IZBORNA JEDINICA, Hrvatska",15.9864553,45.7658692
248,"ULICA MILOVANA KOVAČEVIĆA 18, ZAGREB - I. IZBORNA JEDINICA, Hrvatska",15.9857637,45.7734636
249,"ULICA MILOVANA KOVAČEVIĆA 18, ZAGREB - I. IZBORNA JEDINICA, Hrvatska",15.9857637,45.7734636
250,"ULICA MILOVANA KOVAČEVIĆA 18, ZAGREB - I. IZBORNA JEDINICA, Hrvatska",15.9857637,45.7734636
251,"ULICA MILOVANA KOVAČEVIĆA 18, ZAGREB - I. IZBORNA JEDINICA, Hrvatska",15.9857637,45.7734636
252,"ULICA MILOVANA KOVAČEVIĆA 18, ZAGREB - I. IZBORNA JEDINICA, Hrvatska",15.9857637,45.7734636
253,"ULICA SAVEZNE REPUBLIKE NJEMAČKE 2A, ZAGREB - I. IZBORNA JEDINICA, Hrvatska",15.9896404,45.7807739
254,"ULICA SAVEZNE REPUBLIKE NJEMAČKE 2A, ZAGREB - I. IZBORNA JEDINICA, Hrvatska",15.9896404,45.7807739
255,"ULICA SAVEZNE REPUBLIKE NJEMAČKE 2A, ZAGREB - I. IZBORNA JEDINICA, Hrvatska",15.9896404,45.7807739
256,"ULICA BOŽIDARA MAGOVCA 103, ZAGREB - I. IZBORNA JEDINICA, Hrvatska",15.9989699,45.7703441
257,"ULICA BOŽIDARA MAGOVCA 103, ZAGREB - I. IZBORNA JEDINICA, Hrvatska",15.9989699,45.7703441
258,"ULICA BOŽIDARA MAGOVCA 103, ZAGREB - I. IZBORNA JEDINICA, Hrvatska",15.9989699,45.7703441
259,"ULICA BOŽIDARA MAGOVCA 103, ZAGREB - I. IZBORNA JEDINICA, Hrvatska",15.9989699,45.7703441
260,"ULICA BOŽIDARA MAGOVCA 103, ZAGREB - I. IZBORNA JEDINICA, Hrvatska",15.9989699,45.7703441
261,"ULICA BOŽIDARA MAGOVCA 103, ZAGREB - I. IZBORNA JEDINICA, Hrvatska",15.9989699,45.7703441
262,"ULICA BOŽIDARA MAGOVCA 103, ZAGREB - I. IZBORNA JEDINICA, Hrvatska",15.9989699,45.7703441
263,"KARAMANOV PRILAZ 3, ZAGREB - I. IZBORNA JEDINICA, Hrvatska",15.998995,45.7758154
264,"KARAMANOV PRILAZ 3, ZAGREB - I. IZBORNA JEDINICA, Hrvatska",15.998995,45.7758154
265,"KARAMANOV PRILAZ 3, ZAGREB - I. IZBORNA JEDINICA, Hrvatska",15.998995,45.7758154
266,"KARAMANOV PRILAZ 3, ZAGREB - I. IZBORNA JEDINICA, Hrvatska",15.998995,45.7758154
267,"KARAMANOV PRILAZ 3, ZAGREB - I. IZBORNA JEDINICA, Hrvatska",15.998995,45.7758154
268,"VELIKOPOLJSKA ULICA 9G, ZAGREB - I. IZBORNA JEDINICA, Hrvatska",16.0153417,45.738468
269,"VELIKOPOLJSKA ULICA 9G, ZAGREB - I. IZBORNA JEDINICA, Hrvatska",16.0153417,45.738468
270,"MEŠTROVIĆEV TRG 8A, ZAGREB - I. IZBORNA JEDINICA, Hrvatska",15.9961387,45.7811213
271,"MEŠTROVIĆEV TRG 8A, ZAGREB - I. IZBORNA JEDINICA, Hrvatska",15.9961387,45.7811213
272,"MEŠTROVIĆEV TRG 8A, ZAGREB - I. IZBORNA JEDINICA, Hrvatska",15.9961387,45.7811213
273,"MEŠTROVIĆEV TRG 8A, ZAGREB - I. IZBORNA JEDINICA, Hrvatska",15.9961387,45.7811213
274,"TRG FRANCUSKE REPUBLIKE 11, ZAGREB - I. IZBORNA JEDINICA, Hrvatska",15.9533593,45.81006559999999
275,"BLEIWEISOVA ULICA 24, ZAGREB - I. IZBORNA JEDINICA, Hrvatska",15.9497315,45.8106734
276,"BLEIWEISOVA ULICA 24, ZAGREB - I. IZBORNA JEDINICA, Hrvatska",15.9497315,45.8106734
277,"SELSKA CESTA 3, ZAGREB - I. IZBORNA JEDINICA, Hrvatska",15.9424506,45.8131293
278,"ULICA IVANA CANKARA 10, ZAGREB - I. IZBORNA JEDINICA, Hrvatska",15.9381667,45.8132246
279,"LENDAVSKA ULICA 7, ZAGREB - I. IZBORNA JEDINICA, Hrvatska",15.9191268,45.8230006
280,"SOKOLSKA ULICA 7, ZAGREB - I. IZBORNA JEDINICA, Hrvatska",15.9260756,45.8126992
281,"KUSTOŠIJANSKA ULICA 272, ZAGREB - I. IZBORNA JEDINICA, Hrvatska",15.9225517,45.8316565
282,"KUSTOŠIJANSKA ULICA 272, ZAGREB - I. IZBORNA JEDINICA, Hrvatska",15.9225517,45.8316565
283,"TRG FRANCUSKE REPUBLIKE 15, ZAGREB - I. IZBORNA JEDINICA, Hrvatska",15.9551591,45.8104701
284,"TRG FRANCUSKE REPUBLIKE 15, ZAGREB - I. IZBORNA JEDINICA, Hrvatska",15.9551591,45.8104701
285,"ILICA 259, ZAGREB - I. IZBORNA JEDINICA, Hrvatska",15.931738,45.8142254
286,"SOKOLSKA ULICA 7, ZAGREB - I. IZBORNA JEDINICA, Hrvatska",15.9260756,45.8126992
287,"SOKOLSKA ULICA 7, ZAGREB - I. IZBORNA JEDINICA, Hrvatska",15.9260756,45.8126992
288,"MIKULIĆI 189, ZAGREB - I. IZBORNA JEDINICA, Hrvatska",15.932318,45.8523399
289,"MIKULIĆI 133, ZAGREB - I. IZBORNA JEDINICA, Hrvatska",15.9280687,45.8461525
290,"BIJENIK 164, ZAGREB - I. IZBORNA JEDINICA, Hrvatska",15.939126,45.84742199999999
291,"BIJENIK 164, ZAGREB - I. IZBORNA JEDINICA, Hrvatska",15.939126,45.84742199999999
292,"SVETI DUH 26, ZAGREB - I. IZBORNA JEDINICA, Hrvatska",15.9422322,45.8158247
293,"STRMA CESTA 15, ZAGREB - I. IZBORNA JEDINICA, Hrvatska",15.9362197,45.82198169999999
294,"STRMA CESTA 15, ZAGREB - I. IZBORNA JEDINICA, Hrvatska",15.9362197,45.82198169999999
295,"STRMA CESTA 15, ZAGREB - I. IZBORNA JEDINICA, Hrvatska",15.9362197,45.82198169999999
296,"DUNJEVAC 15A, ZAGREB - I. IZBORNA JEDINICA, Hrvatska",15.9396068,45.8215623
297,"NAD LIPOM 13/1, ZAGREB - I. IZBORNA JEDINICA, Hrvatska",15.9509605,45.8135918
298,"NAD LIPOM 13/1, ZAGREB - I. IZBORNA JEDINICA, Hrvatska",15.9509605,45.8135918
299,"NAD LIPOM 13/1, ZAGREB - I. IZBORNA JEDINICA, Hrvatska",15.9509605,45.8135918
300,"SVETI DUH 24, ZAGREB - I. IZBORNA JEDINICA, Hrvatska",15.9424222,45.81523019999999
301,"SVETI DUH 24, ZAGREB - I. IZBORNA JEDINICA, Hrvatska",15.9424222,45.81523019999999
302,"SVETI DUH 24, ZAGREB - I. IZBORNA JEDINICA, Hrvatska",15.9424222,45.81523019999999
303,"GRAČANI 4A, ZAGREB - I. IZBORNA JEDINICA, Hrvatska",15.9734005,45.8588519
304,"GRAČANI 4A, ZAGREB - I. IZBORNA JEDINICA, Hrvatska",15.9734005,45.8588519
305,"GRAČANI 4A, ZAGREB - I. IZBORNA JEDINICA, Hrvatska",15.9734005,45.8588519
306,"GRAČANI 4A, ZAGREB - I. IZBORNA JEDINICA, Hrvatska",15.9734005,45.8588519
307,"MARKUŠEVEČKA CESTA 160, ZAGREB - I. IZBORNA JEDINICA, Hrvatska",16.0135377,45.87448
308,"MARKUŠEVEČKA CESTA 160, ZAGREB - I. IZBORNA JEDINICA, Hrvatska",16.0135377,45.87448
309,"MARKUŠEVEČKA CESTA 160, ZAGREB - I. IZBORNA JEDINICA, Hrvatska",16.0135377,45.87448
310,"MARKUŠEVEČKA CESTA 38, ZAGREB - I. IZBORNA JEDINICA, Hrvatska",15.9957838,45.8656497
311,"BIDROVEČKA CESTA 30, ZAGREB - I. IZBORNA JEDINICA, Hrvatska",16.028509,45.8921725
312,"JAHORINSKA ULICA 5, ZAGREB - I. IZBORNA JEDINICA, Hrvatska",15.9639268,45.84693850000001
313,"JAHORINSKA ULICA 5, ZAGREB - I. IZBORNA JEDINICA, Hrvatska",15.9639268,45.84693850000001
314,"ŠESTINSKI TRG 10, ZAGREB - I. IZBORNA JEDINICA, Hrvatska",15.9508603,45.8535087
315,"ŠESTINSKI TRG 10, ZAGREB - I. IZBORNA JEDINICA, Hrvatska",15.9508603,45.8535087
316,"VIDOVEC 51, ZAGREB - I. IZBORNA JEDINICA, Hrvatska",16.0348531,45.8989354
317,"STARA GORA 69, KRAVARSKO, Hrvatska",16.0793,45.6011926
318,"ČAKANEC 32, KRAVARSKO, Hrvatska",15.9963083,45.5847993
319,"DONJI HRUŠEVEC 13, KRAVARSKO, Hrvatska",16.0211057,45.5688187
320,"GLADOVEC KRAVARSKI, DONJOHRUŠEVEČKA CESTA 53, KRAVARSKO, Hrvatska",16.0608445,45.5584494
321,"GORNJI HRUŠEVEC BB, KRAVARSKO, Hrvatska",16.0256291,45.5647903
322,"TRG STJEPANA RADIĆA 16, KRAVARSKO, Hrvatska",16.0470947,45.5859312
323,"GLAVNA 29, KRAVARSKO, Hrvatska",16.0480226,45.5856682
324,"PODVORNIČKI VIJENAC 47, KRAVARSKO, Hrvatska",16.0700168,45.6097087
325,"BARBARIČKA CESTA 85, KRAVARSKO, Hrvatska",16.0748063,45.5965809
326,"BUKEVJE  80, ORLE, Hrvatska",16.2068642,45.7217494
327,"DRNEK BB, ORLE, Hrvatska",16.2214775,45.6955019
328,"VRBOVO POSAVSKO BB, ORLE, Hrvatska",16.2451608,45.6802363
329,"VELEŠEVEC 81, ORLE, Hrvatska",16.2641478,45.6543749
330,"RUČA BB, ORLE, Hrvatska",16.2821524,45.6419419
331,"SUŠA BB, ORLE, Hrvatska",16.2916985,45.6304126
332,"TRG HRVATSKIH VELIKANA 1, PISAROVINA, PISAROVINA, Hrvatska",15.984039,45.812296
333,"VELIKA JAMNIČKA 9 A, PISAROVINA, Hrvatska",15.8513621,45.5976799
334,"DVORANCI 74, PISAROVINA, Hrvatska",15.8903522,45.573629
335,"BRATINA, PISAROVINA, Hrvatska",15.8242944,45.6220329
336,"BREGANA PISAROVINSKA, PISAROVINA, Hrvatska",15.8667799,45.622506
337,"LIJEVO SREDIČKO, PISAROVINA, Hrvatska",15.8822763,45.53356549999999
338,"GRADEC POKUPSKI, PISAROVINA, Hrvatska",15.8696354,45.5480445
339,"SELSKO BRDO, PISAROVINA, Hrvatska",15.9004619,45.5539079
340,"LUČELNICA, PISAROVINA, Hrvatska",15.9087824,45.6005976
341,"DONJA KUPČINA, PISAROVINA, Hrvatska",15.8048313,45.5406432
342,"LUKINIĆ BRDO, KRPEČANCI 1, POKUPSKO, Hrvatska",15.9265004,45.542418
343,"HOTNJA, GORNJI KOSI 6, POKUPSKO, Hrvatska",16.0510381,45.5091957
344,"ŠESTAK BRDO 4, POKUPSKO, Hrvatska",15.9727039,45.5227741
345,"GLADOVEC POKUPSKI, GLADOVEC 21, POKUPSKO, Hrvatska",16.0011563,45.50419369999999
346,"TRG PAVLA ŠTOOSA 15, POKUPSKO, Hrvatska",15.9920853,45.4859026
347,"CERJE POKUPSKO 29, POKUPSKO, Hrvatska",15.971026,45.499041
348,"LIJEVI ŠTEFANKI, ULICA HRVATSKIH BRANITELJA 28, POKUPSKO, Hrvatska",15.9240029,45.5186462
349,"PUT SV. ILIJE 53A, POKUPSKO, Hrvatska",15.9384288,45.4747604
350,"OPATIJA, ŠTIMCI 4, POKUPSKO, Hrvatska",15.9871897,45.543257
351,"SOP, RUGVICA, Hrvatska",16.146792,45.7892725
352,"OTOK SVIBOVSKI, RUGVICA, Hrvatska",16.1596428,45.7804799
353,"JALŠEVEC NARTSKI, RUGVICA, Hrvatska",16.2013727,45.7640039
354,"TRG DR. FRANJE TUĐMANA 1, RUGVICA, RUGVICA, Hrvatska",16.2295111,45.7514371
355,"ČRNEC DUGOSELSKI, RUGVICA, Hrvatska",16.2653981,45.7623505
356,"ČRNEC RUGVIČKI, S. RADIĆA 7, RUGVICA, Hrvatska",16.2582784,45.76097739999999
357,"JEŽEVO, RUGVICA, Hrvatska",16.2990286,45.7360996
358,"OBEDIŠĆE JEŽEVSKO, RUGVICA, Hrvatska",16.2944741,45.7572078
359,"DONJA GREDA, RUGVICA, Hrvatska",16.2794535,45.7587316
360,"NOVAKI OBOROVSKI, RUGVICA, Hrvatska",16.217673,45.7238349
361,"PRESEKA OBOROVSKA, RUGVICA, Hrvatska",16.2323987,45.7102471
362,"OBOROVO, RUGVICA, Hrvatska",16.2518874,45.68404169999999
363,"OBOROVO, RUGVICA, Hrvatska",16.2518874,45.68404169999999
364,"PREVLAKA, RUGVICA, Hrvatska",16.2754817,45.67205999999999
0,"MATICE HRVATSKE 17, BJELOVAR, Hrvatska",16.067043,45.711685
1,"I. V. TRNSKOG 19, BJELOVAR, Hrvatska",16.067043,45.711685
2,"TRG EUGENA KVATERNIKA 4, BJELOVAR, Hrvatska",16.0685405,45.7104317
3,"PETRA ZRINSKOG 4, BJELOVAR, Hrvatska",16.0668033,45.7109307
4,"A. B. ŠIMIĆA 1, BJELOVAR, Hrvatska",16.0697135,45.7182871
5,"FRANJEVAČKA  6A, BJELOVAR, Hrvatska",16.0746526,45.7192344
6,"TRG E. KVATERNIKA 11, BJELOVAR, Hrvatska",16.0746526,45.7192344
7,"ŽELJKA SABOLA 14, BJELOVAR, Hrvatska",16.0576383,45.7226432
8,"A. STEPINCA 20A, BJELOVAR, Hrvatska",16.0674921,45.7159355
9,"ULICA ALOJZIJA STEPINCA 36, BJELOVAR, Hrvatska",16.0674921,45.7159355
10,"POLJANA DR. FRANJE TUĐMANA 1, BJELOVAR, Hrvatska",16.0674921,45.7159355
11,"TOME BAKAČA 11D, BJELOVAR, Hrvatska",16.0752431,45.7142122
12,"JANKA DRAŠKOVIĆA 1B, BJELOVAR, Hrvatska",16.0752431,45.7142122
13,"TRG ANTUNA GUSTAVA MATOŠA 8A, BJELOVAR, Hrvatska",16.0750911,45.71171229999999
14,"ANDRIJE MOHOROVIČIĆA 59, BJELOVAR, Hrvatska",16.0752431,45.7142122
15,"POLJANA DR. FRANJE TUĐMANA 1, BJELOVAR, Hrvatska",16.0674921,45.7159355
16,"POLJANA DR. FRANJE TUĐMANA 8, BJELOVAR, Hrvatska",16.0688108,45.7108527
17,"POLJANA DR. FRANJE TUĐMANA 10, BJELOVAR, Hrvatska",16.0674921,45.7159355
18,"RADNIČKO NASELJE PRILAZ II KBR. 3, BJELOVAR, Hrvatska",16.0752431,45.7142122
19,"MIROSLAVA KRLEŽE 187, BJELOVAR, Hrvatska",16.0722794,45.7032778
20,"VELIKE SREDICE 100, BJELOVAR, Hrvatska",16.0752431,45.7142122
21,"KRIŽEVAČKA CESTA 3A, BJELOVAR, Hrvatska",16.0671199,45.73031330000001
22,"NOVE PLAVNICE 6, BJELOVAR, Hrvatska",16.0855556,45.7255845
23,"BREZA 61, BJELOVAR, Hrvatska",16.1011037,45.74421830000001
24,"GAREŠNIČKA 61, BJELOVAR, Hrvatska",15.9415222,45.62626660000001
25,"CIGLENA 13, BJELOVAR, Hrvatska",16.1159484,45.634072
26,"GALOVAC 99, BJELOVAR, Hrvatska",15.9526477,45.5822024
27,"GORNJI TOMAŠ 27A, BJELOVAR, Hrvatska",16.1649177,45.7047315
28,"GUDOVAC 31, BJELOVAR, Hrvatska",16.1204462,45.7507353
29,"KLOKOČEVAC 86, BJELOVAR, Hrvatska",16.0196011,45.7111037
30,"KOKINAC 43, BJELOVAR, Hrvatska",16.1458826,45.6954316
31,"KUPINOVAC 37, BJELOVAR, Hrvatska",15.9673397,45.6120106
32,"LETIČANI 68A, BJELOVAR, Hrvatska",16.0012546,45.7156037
33,"MALO KORENOVO 31, BJELOVAR, Hrvatska",16.1322004,45.6832945
34,"NOVI PAVLJANI 24, BJELOVAR, Hrvatska",16.0376769,45.704182
35,"NOVOSELJANSKA 91, BJELOVAR, Hrvatska",15.9844112,45.6591663
36,"OBROVNICA 38, BJELOVAR, Hrvatska",15.9759259,45.6064409
37,"PATKOVAC 30, BJELOVAR, Hrvatska",16.1411598,45.706129
38,"PLAVNICE GORNJE 39, BJELOVAR, Hrvatska",16.101701,45.73202320000001
39,"PRESPA 229, BJELOVAR, Hrvatska",16.0879199,45.75623909999999
40,"PRGOMELJE 78, BJELOVAR, Hrvatska",16.0085834,45.6150213
41,"PROKLJUVANI 53, BJELOVAR, Hrvatska",16.1396238,45.6757358
42,"RAJIĆ 75, BJELOVAR, Hrvatska",16.1238975,45.72361919999999
43,"STANČIĆI 14, BJELOVAR, Hrvatska",16.1347849,45.7553993
44,"STAROPLAVNIČKA ULICA 52, BJELOVAR, Hrvatska",16.0248396,45.7066135
45,"STARI PAVLJANI 81, BJELOVAR, Hrvatska",16.0745586,45.71407199999999
46,"TOMAŠ 85, BJELOVAR, Hrvatska",16.0559618,45.7523272
47,"ĐURĐEVAČKA CESTA 148, BJELOVAR, Hrvatska",16.0964493,45.66544589999999
48,"VELIKO KORENOVO 109A, BJELOVAR, Hrvatska",16.1259574,45.7015646
49,"ZVIJERCI 77A, BJELOVAR, Hrvatska",16.1243752,45.6210075
50,"DARUVARSKA 40, BJELOVAR, Hrvatska",16.0726561,45.6719191
51,"ŽDRALOVSKA 20, BJELOVAR, Hrvatska",16.0311118,45.6926047
52,"TRG ČAZMANSKOG KAPTOLA 13, ČAZMA, Hrvatska",16.1405054,45.652699
53,"KRALJA TOMISLAVA 1, ČAZMA, Hrvatska",16.1501837,45.7160093
54,"DEREZA 30A, ČAZMA, Hrvatska",16.0998707,45.75010830000001
55,"BOSILJEVO 18, ČAZMA, Hrvatska",16.2157615,45.7413349
56,"M. NOVAČIĆA 48, ČAZMA, Hrvatska",16.1207409,45.6925847
57,"KRALJA TOMISLAVA 10A, ČAZMA, Hrvatska",16.1630566,45.7451867
58,"SUHAJA 95, ČAZMA, Hrvatska",16.1176061,45.7725739
59,"MILAŠEVAC 49A, ČAZMA, Hrvatska",16.0224011,45.6334418
60,"CERINA 14, ČAZMA, Hrvatska",16.1367631,45.6480437
61,"GRABIK 56, ČAZMA, Hrvatska",16.0702016,45.6266843
62,"GORNJI LIPOVČANI 30, ČAZMA, Hrvatska",16.0547732,45.6442005
63,"GORNJI DRAGIČEVCI 31, ČAZMA, Hrvatska",16.0415831,45.620007
64,"DONJI DRAGIČEVCI 7, ČAZMA, Hrvatska",16.0246069,45.738104
65,"PRNJAROVAC 64, ČAZMA, Hrvatska",16.0302443,45.7362107
66,"DAPCI 210, ČAZMA, Hrvatska",15.9489918,45.6106136
67,"MARČANI 41, ČAZMA, Hrvatska",16.0726108,45.7127809
68,"OPĆEVAC 40, ČAZMA, Hrvatska",15.9666043,45.8095156
69,"SOVARI 28, ČAZMA, Hrvatska",15.9666043,45.8095156
70,"GORNJI DRAGANEC 234, ČAZMA, Hrvatska",15.9804853,45.8074988
71,"DONJI DRAGANEC 56, ČAZMA, Hrvatska",15.9804853,45.8074988
72,"SIŠĆANI 101, ČAZMA, Hrvatska",15.9722512,45.8100437
73,"ZDENČEC 44, ČAZMA, Hrvatska",15.9722512,45.8100437
74,"BOJANA 67, ČAZMA, Hrvatska",15.9842869,45.81121
75,"VAGOVINA 105, ČAZMA, Hrvatska",15.9865498,45.8084874
76,"KOMUŠEVAC 60, ČAZMA, Hrvatska",15.9865498,45.8084874
77,"POBJENIK 102, ČAZMA, Hrvatska",15.9747335,45.808887
78,"GRABOVNICA 54, ČAZMA, Hrvatska",15.9747335,45.808887
79,"GORNJI MIKLOUŠ 61, ČAZMA, Hrvatska",15.9977497,45.8095379
80,"DONJI MIKLOUŠ 144, ČAZMA, Hrvatska",15.9977497,45.8095379
81,"MARTINAC 73, ČAZMA, Hrvatska",15.9935122,45.8080893
82,"NOVO SELO 18, ČAZMA, Hrvatska",15.9935122,45.8080893
83,"VUČANI 32, ČAZMA, Hrvatska",15.9923357,45.8132137
84,"VRTLINSKA 105, ČAZMA, Hrvatska",15.9928602,45.813218
85,"PAVLIČANI 57, ČAZMA, Hrvatska",15.9666451,45.8076658
86,"TRG PRESVETOG TROJSTVA 4, DARUVAR, Hrvatska",15.9666451,45.8076658
87,"TRG DR. FRANJE TUĐMANA 4, DARUVAR, Hrvatska",15.9928602,45.813218
88,"KRSE FRANKOPANA 80, DARUVAR, Hrvatska",15.9928602,45.813218
89,"KRSTE FRANKOPANA 80, DARUVAR, Hrvatska",15.9928602,45.813218
90,"KRSTE FRANKOPANA 80, DARUVAR, Hrvatska",15.9928602,45.813218
91,"KRSTE FRANKOPANA 80, DARUVAR, Hrvatska",15.9880712,45.8085337
92,"PETRA ZRINSKOG 1, DARUVAR, Hrvatska",15.9880712,45.8085337
93,"HRVATSKIH BRANITELJA 57, DARUVAR, Hrvatska",15.9606737,45.8095599
94,"LJUDEVITA GAJA 24, DARUVAR, Hrvatska",15.9589507,45.8119175
95,"JOSIPA JELAČIĆA 15, DARUVAR, Hrvatska",15.9589507,45.8119175
96,"LJUDEVITA GAJA 24, DARUVAR, Hrvatska",15.9816747,45.810349
97,"T. G. MASARYKA 5, DARUVAR, Hrvatska",15.9816747,45.810349
98,"T. G. MASARYKA 5, DARUVAR, Hrvatska",15.9764,45.8157755
99,"PODBORSKA ULICA 21, DARUVAR, Hrvatska",15.9733825,45.8157638
100,"LJUDEVIT SELO 15, DARUVAR, Hrvatska",15.9733825,45.8157638
101,"LIPOVAC MAJUR 6, DARUVAR, Hrvatska",15.9837322,45.837388
102,"MATIJE GUPCA 163, DARUVAR, Hrvatska",15.9761004,45.8314815
103,"DUGO SELO, HRVATSKOG PREPORODA 68, DUGO SELO, Hrvatska",15.9752116,45.8375151
104,"DUGO SELO, ZAGREBAČKA ULICA 24, DUGO SELO, Hrvatska",15.9643264,45.8142006
105,"DUGO SELO, ZAGREBAČKA ULICA 24, DUGO SELO, Hrvatska",15.9596653,45.8217688
106,"DUGO SELO, ZAGREBAČKA ULICA 24, DUGO SELO, Hrvatska",15.9682373,45.8287045
107,"DUGO SELO, HRVATSKOG PREPORODA 68, DUGO SELO, Hrvatska",15.9795805,45.8196771
108,"DUGO SELO, JOSIPA ZORIĆA 1, DUGO SELO, Hrvatska",15.9842646,45.8242668
109,"DUGO SELO, HRVATSKOG PREPORODA 68, DUGO SELO, Hrvatska",15.9784243,45.8220824
110,"DUGO SELO, JOSIPA ZORIĆA 21 A, DUGO SELO, Hrvatska",15.9774325,45.8263334
111,"DUGO SELO, JOSIPA ZORIĆA 21 A, DUGO SELO, Hrvatska",15.994052,45.81483730000001
112,"DUGO SELO, STJEPANA FERENČAKA 25, DUGO SELO, Hrvatska",15.9906132,45.8159068
113,"DUGO SELO, STJEPANA FERENČAKA 25, DUGO SELO, Hrvatska",15.9797765,45.818208
114,"DUGO SELO, JOSIPA ZORIĆA 86, DUGO SELO, Hrvatska",15.9596653,45.8217688
115,"DUGO SELO, JOSIPA ZORIĆA 86, DUGO SELO, Hrvatska",15.9596653,45.8217688
116,"DUGO SELO, JOSIPA ZORIĆA 86, DUGO SELO, Hrvatska",15.9589507,45.8119175
117,"DUGO SELO, JOSIPA ZORIĆA 86, DUGO SELO, Hrvatska",15.9876329,45.8182488
118,"DUGO SELO, JOSIPA ZORIĆA 86, DUGO SELO, Hrvatska",15.9688531,45.8199014
119,"DUGO SELO, JOSIPA ZORIĆA 86, DUGO SELO, Hrvatska",15.9714367,45.8237871
120,"LUKARIŠĆE, BJELOVARSKA 17, DUGO SELO, Hrvatska",15.967129,45.84367229999999
121,"KOZINŠČAK, KOZINSKA 31, DUGO SELO, Hrvatska",15.9589507,45.8119175
122,"KOZINŠČAK, ULICA TOME KAPITANA 6, DUGO SELO, Hrvatska",15.9876329,45.8182488
123,"VELIKA OSTRNA, OMLADINSKA BB, DUGO SELO, Hrvatska",15.9876329,45.8182488
124,"VELIKA OSTRNA, OMLADINSKA BB, DUGO SELO, Hrvatska",15.9625446,45.7960859
125,"MALA OSTRNA, ZAGREBAČKA 14, DUGO SELO, Hrvatska",15.9625446,45.7960859
126,"LEPROVICA, ZAGREBAČKA 49, DUGO SELO, Hrvatska",15.9640291,45.7912781
127,"ANDRILOVEC, ANDRILOVEČKA CESTA 83, DUGO SELO, Hrvatska",15.9999629,45.8017942
128,"PROZORJE, PROZORSKA 139, DUGO SELO, Hrvatska",15.993509,45.7973522
129,"DONJE DVORIŠĆE, DVORIŠKA 43, DUGO SELO, Hrvatska",15.993509,45.7973522
130,"BANOVAČA 77, GAREŠNICA, Hrvatska",15.993509,45.7973522
131,"BRESTOVAČKA ULICA 72, GAREŠNICA, Hrvatska",15.993509,45.7973522
132,"TOMAŠICA 127, GAREŠNICA, Hrvatska",15.964769,45.8021997
133,"MALI PAŠIJAN 72, GAREŠNICA, Hrvatska",15.9829428,45.8012395
134,"VELIKI PAŠIJAN 73, GAREŠNICA, Hrvatska",15.9734495,45.79812039999999
135,"DIŠNIK 58, GAREŠNICA, Hrvatska",15.9587555,45.7920914
136,"TRNOVITIČKI POPOVAC 85, GAREŠNICA, Hrvatska",15.9989563,45.7999146
137,"VELIKI PROKOP 5 A, GAREŠNICA, Hrvatska",15.9989563,45.7999146
138,"VELIKA BRŠLJANICA 71, GAREŠNICA, Hrvatska",15.9989563,45.7999146
139,"VELIKA BRŠLJANICA 46 A, GAREŠNICA, Hrvatska",15.9989563,45.7999146
140,"UL. MATIJE GUPCA 136, GAREŠNICA, Hrvatska",15.9989563,45.7999146
141,"KANIŠKA IVA 145, GAREŠNICA, Hrvatska",15.9942925,45.7897078
142,"CIGLENICA 85A, GAREŠNICA, Hrvatska",15.9799383,45.7915225
143,"ROGOŽA 54, GAREŠNICA, Hrvatska",15.9924409,45.7898189
144,"KOLODVORSKA ULICA 4, GAREŠNICA, Hrvatska",15.9924409,45.7898189
145,"VELIKO VUKOVJE 146, GAREŠNICA, Hrvatska",15.9924409,45.7898189
146,"MALO VUKOVJE 39, GAREŠNICA, Hrvatska",15.9924409,45.7898189
147,"TRG ANTE STARČEVIĆA 4, GAREŠNICA, Hrvatska",15.9924409,45.7898189
148,"TRG HRVATSKIH BRANITELJA 10, GAREŠNICA, Hrvatska",15.995947,45.78996009999999
149,"DUHOVI 44, GAREŠNICA, Hrvatska",15.9808034,45.7987306
150,"ULJANIK 68, GAREŠNICA, Hrvatska",15.987175,45.7981929
151,"VLADIMIRA NAZORA 21, GAREŠNICA, Hrvatska",15.9571081,45.7890556
152,"KAPELICA 105, GAREŠNICA, Hrvatska",15.9672793,45.796796
153,"KAJGANA 39, GAREŠNICA, Hrvatska",15.9672793,45.796796
154,"IVANA NEPOMUKA JEMERŠIĆA 1, GRUBIŠNO POLJE, Hrvatska",16.0107179,45.8378686
155,"ULICA 4. STUDENI 1991. KBR.1A, GRUBIŠNO POLJE, Hrvatska",16.0107179,45.8378686
156,"BARTOLA KAŠIĆA 1, GRUBIŠNO POLJE, Hrvatska",16.0158036,45.8363296
157,"KRALJA ZVONIMIRA 75., GRUBIŠNO POLJE, Hrvatska",16.0122143,45.8384774
158,"POLJANI 66, GRUBIŠNO POLJE, Hrvatska",16.0083673,45.8359313
159,"DONJA RAŠENICA 59, GRUBIŠNO POLJE, Hrvatska",15.981919,45.8150108
160,"PRAŠKA 5, GRUBIŠNO POLJE, Hrvatska",15.981919,45.8150108
161,"RASTOVAC 46, GRUBIŠNO POLJE, Hrvatska",15.981919,45.8150108
162,"TREGLAVA 2, GRUBIŠNO POLJE, Hrvatska",15.9980229,45.8244213
163,"MATE LOVRAKA 115, GRUBIŠNO POLJE, Hrvatska",16.0007018,45.8267289
164,"TRG KRALJA TOMISLAVA 5, GRUBIŠNO POLJE, Hrvatska",16.0053746,45.8199962
165,"ANTUNA MIHANOVIĆA 77, GRUBIŠNO POLJE, Hrvatska",16.0173286,45.8455542
166,"ORLOVAC ZDENAČKI 70A, GRUBIŠNO POLJE, Hrvatska",16.0173286,45.8455542
167,"GRBAVAC 76, GRUBIŠNO POLJE, Hrvatska",16.0008744,45.8117665
168,"KRALJA TOMISLAVA 1A, GRUBIŠNO POLJE, Hrvatska",16.0000765,45.8152147
169,"LONČARICA 50, GRUBIŠNO POLJE, Hrvatska",15.994484,45.8324655
170,"DAPČEVAČKI BRĐANI 7, GRUBIŠNO POLJE, Hrvatska",15.994484,45.8324655
171,"IVANIĆ-GRAD, IVANIĆ-GRAD, Hrvatska",16.0009136,45.83197089999999
172,"OPATINEC, IVANIĆ-GRAD, Hrvatska",16.0096214,45.82599140000001
173,"STJEPANA GREGORKA BB, IVANIĆ-GRAD, IVANIĆ-GRAD, Hrvatska",16.0096214,45.82599140000001
174,"ULICA SLOBODE BB, IVANIĆ-GRAD, IVANIĆ-GRAD, Hrvatska",16.0001008,45.8305038
175,"TREBOVEC, IVANIĆ-GRAD, Hrvatska",16.0261874,45.8184722
176,"POSAVSKI BREGI, IVANIĆ-GRAD, Hrvatska",16.0261874,45.8184722
177,"GREDA BREŠKA, IVANIĆ-GRAD, Hrvatska",16.0261874,45.8184722
178,"LIJEVI DUBROVČAK, IVANIĆ-GRAD, Hrvatska",16.0261874,45.8184722
179,"PREROVEC, IVANIĆ-GRAD, Hrvatska",16.0261874,45.8184722
180,"PREČNO, IVANIĆ-GRAD, Hrvatska",16.0261874,45.8184722
181,"CAGINEC, IVANIĆ-GRAD, Hrvatska",16.0053746,45.8199962
182,"ZAGREBAČKA UL. BB, GRABERJE IVANIĆKO, IVANIĆ-GRAD, Hrvatska",16.0053746,45.8199962
183,"ŠUMEĆANI, IVANIĆ-GRAD, Hrvatska",16.0069929,45.8191839
184,"DEANOVEC, IVANIĆ-GRAD, Hrvatska",15.9927084,45.8513431
185,"UL. MILKE TRNINE BB, IVANIĆ-GRAD, IVANIĆ-GRAD, Hrvatska",15.9927084,45.8513431
186,"BELICEVA 1, IVANIĆ-GRAD, IVANIĆ-GRAD, Hrvatska",15.9909037,45.8482612
187,"MOSLAVAČKA 11, IVANIĆ-GRAD, IVANIĆ-GRAD, Hrvatska",15.9909037,45.8482612
188,"UL. KRALJA TOMISLAVA BB, IVANIĆ-GRAD, IVANIĆ-GRAD, Hrvatska",16.0074233,45.8161312
189,"SAVSKA BB, IVANIĆ-GRAD, IVANIĆ-GRAD, Hrvatska",16.0074233,45.8161312
190,"MAJDEKOVA BB, DONJI ŠARAMPOV, IVANIĆ-GRAD, Hrvatska",16.0451216,45.8083406
191,"MILKE TRNINE BB, IVANIĆ-GRAD, IVANIĆ-GRAD, Hrvatska",16.0454711,45.8083003
192,"ULICA BANA JOSIPA JELAČIĆA 23, KRIŽEVCI, Hrvatska",16.0245235,45.8114306
193,"ULICA IVANA ZAKMARDIJA DIJANKOVEČKOG 3, KRIŽEVCI, Hrvatska",16.0245235,45.8114306
194,"ULICA DRAGE GRDENIĆA 7, KRIŽEVCI, Hrvatska",16.0245235,45.8114306
195,"ULICA ANTUNA GUSTAVA MATOŠA 4, KRIŽEVCI, Hrvatska",16.0174371,45.8075274
196,"ULICA ANTUNA GUSTAVA MATOŠA 4, KRIŽEVCI, Hrvatska",16.0174371,45.8075274
197,"ZAGREBAČKA ULICA 33, KRIŽEVCI, Hrvatska",16.0240979,45.8009077
198,"ULICA KRALJA TOMISLAVA 20, KRIŽEVCI, Hrvatska",16.0240979,45.8009077
199,"ULICA KRALJA TOMISLAVA 45, KRIŽEVCI, Hrvatska",16.0240979,45.8009077
200,"ULICA KRALJA TOMISLAVA 114, KRIŽEVCI, Hrvatska",16.0240979,45.8009077
201,"TRG SVETOG FLORIJANA 14, KRIŽEVCI, Hrvatska",16.0049709,45.79395299999999
202,"ULICA FRANJE MARKOVIĆA 33, KRIŽEVCI, Hrvatska",16.0049709,45.79395299999999
203,"ULICA IVANA LEPUŠIĆA 1, KRIŽEVCI, Hrvatska",16.0047305,45.7942583
204,"ULICA FRANJE RAČKOGA 2, KRIŽEVCI, Hrvatska",16.1132233,45.8009051
205,"ULICA FRANJE RAČKOGA 3, KRIŽEVCI, Hrvatska",16.0491955,45.7942931
206,"MALI POTOČEC, KRIŽEVCI, Hrvatska",16.0491955,45.7942931
207,"APATOVEC, KRIŽEVCI, Hrvatska",16.0503828,45.7937295
208,"BOJNIKOVEC, KRIŽEVCI, Hrvatska",16.0503828,45.7937295
209,"BRCKOVČINA, KRIŽEVCI, Hrvatska",16.0503828,45.7937295
210,"BUKOVJE KRIŽEVAČKO, KRIŽEVCI, Hrvatska",16.0503828,45.7937295
211,"CAREVDAR, KRIŽEVCI, Hrvatska",16.0503828,45.7937295
212,"NOVI BOŠNJANI, KRIŽEVCI, Hrvatska",16.0090183,45.8128777
213,"STARI BOŠNJANI, KRIŽEVCI, Hrvatska",16.0090183,45.8128777
214,"DONJI CUBINEC, KRIŽEVCI, Hrvatska",16.0114208,45.8158143
215,"CUBINEC, KRIŽEVCI, Hrvatska",16.0114208,45.8158143
216,"DIJANKOVEC, KRIŽEVCI, Hrvatska",16.0559845,45.7748074
217,"SREDNJI DUBOVEC, KRIŽEVCI, Hrvatska",16.0559845,45.7748074
218,"ĐURĐIC, KRIŽEVCI, Hrvatska",16.0812907,45.8029595
219,"LEMEŠ KRIŽEVAČKI, KRIŽEVCI, Hrvatska",16.0180786,45.7927741
220,"ERDOVEC, KRIŽEVCI, Hrvatska",16.0088849,45.7874229
221,"DONJA GLOGOVNICA, KRIŽEVCI, Hrvatska",16.0088849,45.7874229
222,"GRAČINA, KRIŽEVCI, Hrvatska",16.0088849,45.7874229
223,"IVANEC KRIŽEVAČKI, KRIŽEVCI, Hrvatska",16.0178038,45.80822999999999
224,"KLOŠTAR VOJAKOVAČKI, KRIŽEVCI, Hrvatska",16.0205677,45.8086938
225,"MAJUREC, KRIŽEVCI, Hrvatska",16.0206214,45.8060542
226,"NOVAKI RAVENSKI, KRIŽEVCI, Hrvatska",16.0236199,45.8073771
227,"OSIJEK VOJAKOVAČKI, KRIŽEVCI, Hrvatska",16.0236199,45.8073771
228,"PAVLOVEC RAVENSKI, KRIŽEVCI, Hrvatska",16.0479196,45.8086093
229,"POLJANA KRIŽEVAČKA, KRIŽEVCI, Hrvatska",16.0612897,45.7818273
230,"PODGAJEC, KRIŽEVCI, Hrvatska",16.0612897,45.7818273
231,"SVETA HELENA, KRIŽEVCI, Hrvatska",15.994304,45.7516066
232,"SVETI MARTIN, KRIŽEVCI, Hrvatska",15.9959504,45.7642063
233,"ŠPIRANEC, KRIŽEVCI, Hrvatska",15.9959504,45.7642063
234,"VEĆESLAVEC, KRIŽEVCI, Hrvatska",15.9959504,45.7642063
235,"POVELIĆ, KRIŽEVCI, Hrvatska",15.9959504,45.7642063
236,"RUŠEVAC, KRIŽEVCI, Hrvatska",15.9959504,45.7642063
237,"VELIKI POTOČEC, KRIŽEVCI, Hrvatska",15.9959504,45.7642063
238,"VELIKI RAVEN, KRIŽEVCI, Hrvatska",15.9959504,45.7642063
239,"VELIKE SESVETE, KRIŽEVCI, Hrvatska",15.9959504,45.7642063
240,"VOJAKOVAC, KRIŽEVCI, Hrvatska",15.9959504,45.7642063
241,"ŽIBRINOVEC, KRIŽEVCI, Hrvatska",15.9964429,45.7794248
242,"LEMEŠ, KRIŽEVCI, Hrvatska",16.0157539,45.7607304
243,"TRG A. STARČEVIĆA 1, SVETI IVAN ZELINA, Hrvatska",16.0157539,45.7607304
244,"TRG A. STARČEVIĆA 12, SVETI IVAN ZELINA, Hrvatska",15.9864553,45.7658692
245,"V.NAZORA 64, SVETI IVAN ZELINA, Hrvatska",15.9864553,45.7658692
246,"DONJA TOPLIČICA 4, SVETI IVAN ZELINA, Hrvatska",15.9864553,45.7658692
247,"GORNJA TOPLIČICA 21, SVETI IVAN ZELINA, Hrvatska",15.9864553,45.7658692
248,"ZELINGRADSKA 39, BIŠKUPEC ZELINSKI, SVETI IVAN ZELINA, Hrvatska",15.9857637,45.7734636
249,"VELIKA GORA 2 A, SVETI IVAN ZELINA, Hrvatska",15.9857637,45.7734636
250,"GORNJE PSARJEVO 16, SVETI IVAN ZELINA, Hrvatska",15.9857637,45.7734636
251,"DONJE PSARJEVO 12 B, SVETI IVAN ZELINA, Hrvatska",15.9857637,45.7734636
252,"ULICA FUČKANI 12, BLAŽEVDOL, SVETI IVAN ZELINA, Hrvatska",15.9857637,45.7734636
253,"SELNICA PSARJEVAČKA 10, SVETI IVAN ZELINA, Hrvatska",15.9896404,45.7807739
254,"CURKOVEC 12, SVETI IVAN ZELINA, Hrvatska",15.9896404,45.7807739
255,"DONJOZELINSKA 52, DONJA ZELINA, SVETI IVAN ZELINA, Hrvatska",15.9896404,45.7807739
256,"BLAŠKOVEČKA 75, BLAŠKOVEC, SVETI IVAN ZELINA, Hrvatska",15.9989699,45.7703441
257,"NESPEŠ  5, SVETI IVAN ZELINA, Hrvatska",15.9989699,45.7703441
258,"BUNJAK 23, SVETI IVAN ZELINA, Hrvatska",15.9989699,45.7703441
259,"GORNJA DRENOVA 40/B, SVETI IVAN ZELINA, Hrvatska",15.9989699,45.7703441
260,"DONJA DRENOVA 50, SVETI IVAN ZELINA, Hrvatska",15.9989699,45.7703441
261,"NOVOSELI 15, HRNJANEC, SVETI IVAN ZELINA, Hrvatska",15.9989699,45.7703441
262,"SV. HELENA 54/A, SVETI IVAN ZELINA, Hrvatska",15.9989699,45.7703441
263,"BANJE SELO 48, SVETI IVAN ZELINA, Hrvatska",15.998995,45.7758154
264,"LAKTEC 10, SVETI IVAN ZELINA, Hrvatska",15.998995,45.7758154
265,"GORIČANEC 1 B, SVETI IVAN ZELINA, Hrvatska",15.998995,45.7758154
266,"KRIŽEVČEC  1 B, SVETI IVAN ZELINA, Hrvatska",15.998995,45.7758154
267,"ULICA SVETOG TROJSTVA 50, MAJKOVEC, SVETI IVAN ZELINA, Hrvatska",15.998995,45.7758154
268,"PAUKOVEČKA 17, PAUKOVEC, SVETI IVAN ZELINA, Hrvatska",16.0153417,45.738468
269,"BUKEVJE 15 A, SVETI IVAN ZELINA, Hrvatska",16.0153417,45.738468
270,"BUKOVEC ZELINSKI 66 N, SVETI IVAN ZELINA, Hrvatska",15.9961387,45.7811213
271,"SUHODOL ZELINSKI 8, SVETI IVAN ZELINA, Hrvatska",15.9961387,45.7811213
272,"ZAGREBAČKA 44A, GORIČICA, SVETI IVAN ZELINA, Hrvatska",15.9961387,45.7811213
273,"KALINJE 13 A, SVETI IVAN ZELINA, Hrvatska",15.9961387,45.7811213
274,"PRETOKI 22, SVETI IVAN ZELINA, Hrvatska",15.9533593,45.81006559999999
275,"BISTRIČKA 79, DONJE OREŠJE, SVETI IVAN ZELINA, Hrvatska",15.9497315,45.8106734
276,"GORNJE OREŠJE 78 A, SVETI IVAN ZELINA, Hrvatska",15.9497315,45.8106734
277,"HRASTJE 52, SVETI IVAN ZELINA, Hrvatska",15.9424506,45.8131293
278,"ŽITOMIR 16 D, SVETI IVAN ZELINA, Hrvatska",15.9381667,45.8132246
279,"PREPOLNO 3, SVETI IVAN ZELINA, Hrvatska",15.9191268,45.8230006
280,"ZADRKOVEC 25 D, SVETI IVAN ZELINA, Hrvatska",15.9260756,45.8126992
281,"KOMIN 3, SVETI IVAN ZELINA, Hrvatska",15.9225517,45.8316565
282,"TOMAŠEVEC 28 D, SVETI IVAN ZELINA, Hrvatska",15.9225517,45.8316565
283,"RADOIŠĆE 97B, SVETI IVAN ZELINA, Hrvatska",15.9551591,45.8104701
284,"ZRINŠĆINA 30 A, SVETI IVAN ZELINA, Hrvatska",15.9551591,45.8104701
285,"SALNIK 31, SVETI IVAN ZELINA, Hrvatska",15.931738,45.8142254
286,"MARINOVEC ZELINSKI 27, SVETI IVAN ZELINA, Hrvatska",15.9260756,45.8126992
287,"ŠULINEC 26 A, SVETI IVAN ZELINA, Hrvatska",15.9260756,45.8126992
288,"KREČAVES 53, SVETI IVAN ZELINA, Hrvatska",15.932318,45.8523399
289,"NOVO MJESTO 44, SVETI IVAN ZELINA, Hrvatska",15.9280687,45.8461525
290,"POLONJE 8 A, SVETI IVAN ZELINA, Hrvatska",15.939126,45.84742199999999
291,"POLONJE TOMAŠEVEČKO 105 A, SVETI IVAN ZELINA, Hrvatska",15.939126,45.84742199999999
292,"KELEMINOVEC 22, SVETI IVAN ZELINA, Hrvatska",15.9422322,45.8158247
293,"TRG P. ZRINSKOG 9, VRBOVEC, VRBOVEC, Hrvatska",15.9362197,45.82198169999999
294,"KRIŽEVAČKA 4, VRBOVEC, VRBOVEC, Hrvatska",15.9362197,45.82198169999999
295,"GRADEČKA 70, VRBOVEC, VRBOVEC, Hrvatska",15.9362197,45.82198169999999
296,"BRDO 3, VRBOVEC, VRBOVEC, Hrvatska",15.9396068,45.8215623
297,"KOLODVORSKA 1, VRBOVEC, VRBOVEC, Hrvatska",15.9509605,45.8135918
298,"EUGENA DE PIENNESA 14 F, VRBOVEC, VRBOVEC, Hrvatska",15.9509605,45.8135918
299,"EUGENA DE PIENNESA 14 F, VRBOVEC, VRBOVEC, Hrvatska",15.9509605,45.8135918
300,"VRBOVEČKI PAVLOVEC 75, VRBOVEC, VRBOVEC, Hrvatska",15.9424222,45.81523019999999
301,"RADNIČKA 8, VRBOVEC, VRBOVEC, Hrvatska",15.9424222,45.81523019999999
302,"LUKA 367 A, VRBOVEC, Hrvatska",15.9424222,45.81523019999999
303,"NOVO SELO 2B, VRBOVEC, Hrvatska",15.9734005,45.8588519
304,"CELINE 54, VRBOVEC, Hrvatska",15.9734005,45.8588519
305,"CERJE 15, VRBOVEC, Hrvatska",15.9734005,45.8588519
306,"BRČEVEC 46, VRBOVEC, Hrvatska",15.9734005,45.8588519
307,"POLJANA 153, VRBOVEC, Hrvatska",16.0135377,45.87448
308,"POLJANSKI LUG 11, VRBOVEC, Hrvatska",16.0135377,45.87448
309,"PRILESJE 38, VRBOVEC, Hrvatska",16.0135377,45.87448
310,"KONAK 12B, VRBOVEC, Hrvatska",15.9957838,45.8656497
311,"GORNJI TKALEC 47, VRBOVEC, Hrvatska",16.028509,45.8921725
312,"ŽUNCI 6, VRBOVEC, Hrvatska",15.9639268,45.84693850000001
313,"LOVREČKA VELIKA 21, VRBOVEC, Hrvatska",15.9639268,45.84693850000001
314,"GOSTOVIĆ 16, VRBOVEC, Hrvatska",15.9508603,45.8535087
315,"BANOVO 59, VRBOVEC, Hrvatska",15.9508603,45.8535087
316,"BANOVO 59, VRBOVEC, Hrvatska",16.0348531,45.8989354
317,"LOVREČKA VAROŠ 34, VRBOVEC, Hrvatska",16.0793,45.6011926
318,"LUKOVO 78, VRBOVEC, Hrvatska",15.9963083,45.5847993
319,"TOPOLOVEC 5A, VRBOVEC, Hrvatska",16.0211057,45.5688187
320,"MARENIĆ 28, VRBOVEC, Hrvatska",16.0608445,45.5584494
321,"LONJICA 128, VRBOVEC, Hrvatska",16.0256291,45.5647903
322,"PESKOVEC 39, VRBOVEC, Hrvatska",16.0470947,45.5859312
323,"GREDA 25, VRBOVEC, Hrvatska",16.0480226,45.5856682
324,"SAMOBOREC 11, VRBOVEC, Hrvatska",16.0700168,45.6097087
325,"GAJ 47, VRBOVEC, Hrvatska",16.0748063,45.5965809
326,"DIJANEŠ 61, VRBOVEC, Hrvatska",16.2068642,45.7217494
327,"KRKAČ BB, VRBOVEC, Hrvatska",16.2214775,45.6955019
328,"PIRAKOVEC 13, VRBOVEC, Hrvatska",16.2451608,45.6802363
329,"DULEPSKA 44, VRBOVEC, Hrvatska",16.2641478,45.6543749
330,"NEGOVEC BB, VRBOVEC, Hrvatska",16.2821524,45.6419419
331,"VRHOVEC 20, VRBOVEC, Hrvatska",16.2916985,45.6304126
332,"DONJI TKALEC 9, VRBOVEC, Hrvatska",15.984039,45.812296
333,"MARENIĆ 28, VRBOVEC, Hrvatska",15.8513621,45.5976799
334,"BRANOVEČKA CESTA 94, ZAGREB - II. IZBORNA JEDINICA, Hrvatska",15.8903522,45.573629
335,"ČUČERSKA CESTA 382, ZAGREB - II. IZBORNA JEDINICA, Hrvatska",15.8242944,45.6220329
336,"ČUČERSKA CESTA 382, ZAGREB - II. IZBORNA JEDINICA, Hrvatska",15.8667799,45.622506
337,"SLANOVEČKA CESTA 19, ZAGREB - II. IZBORNA JEDINICA, Hrvatska",15.8822763,45.53356549999999
338,"SLANOVEČKA CESTA 19, ZAGREB - II. IZBORNA JEDINICA, Hrvatska",15.8696354,45.5480445
339,"DUBEČKA ULICA 5, ZAGREB - II. IZBORNA JEDINICA, Hrvatska",15.9004619,45.5539079
340,"DUBEČKA ULICA 5, ZAGREB - II. IZBORNA JEDINICA, Hrvatska",15.9087824,45.6005976
341,"ULICA RUDOLFA IVANKOVIĆA 34, ZAGREB - II. IZBORNA JEDINICA, Hrvatska",15.8048313,45.5406432
342,"ULICA SV. LEOPOLDA MANDIĆA 55, ZAGREB - II. IZBORNA JEDINICA, Hrvatska",15.9265004,45.542418
343,"ULICA SV. LEOPOLDA MANDIĆA 55, ZAGREB - II. IZBORNA JEDINICA, Hrvatska",16.0510381,45.5091957
344,"ULICA SV. LEOPOLDA MANDIĆA 55, ZAGREB - II. IZBORNA JEDINICA, Hrvatska",15.9727039,45.5227741
345,"ULICA SV. LEOPOLDA MANDIĆA 55, ZAGREB - II. IZBORNA JEDINICA, Hrvatska",16.0011563,45.50419369999999
346,"ULICA SV. LEOPOLDA MANDIĆA 55, ZAGREB - II. IZBORNA JEDINICA, Hrvatska",15.9920853,45.4859026
347,"LJUBIJSKA ULICA 79A, ZAGREB - II. IZBORNA JEDINICA, Hrvatska",15.971026,45.499041
348,"LJUBIJSKA ULICA 79A, ZAGREB - II. IZBORNA JEDINICA, Hrvatska",15.9240029,45.5186462
349,"LJUBIJSKA ULICA 79A, ZAGREB - II. IZBORNA JEDINICA, Hrvatska",15.9384288,45.4747604
350,"VRTNJAKOVEČKA ULICA 8, ZAGREB - II. IZBORNA JEDINICA, Hrvatska",15.9871897,45.543257
351,"DRAVSKA ULICA 4, ZAGREB - II. IZBORNA JEDINICA, Hrvatska",16.146792,45.7892725
352,"GRANEŠINA 18, ZAGREB - II. IZBORNA JEDINICA, Hrvatska",16.1596428,45.7804799
353,"SUNEKOVA ULICA 135, ZAGREB - II. IZBORNA JEDINICA, Hrvatska",16.2013727,45.7640039
354,"NOVAČKA ULICA 200, ZAGREB - II. IZBORNA JEDINICA, Hrvatska",16.2295111,45.7514371
355,"ALEJA BLAŽA JURIŠIĆA 13, ZAGREB - II. IZBORNA JEDINICA, Hrvatska",16.2653981,45.7623505
356,"ALEJA BLAŽA JURIŠIĆA 13, ZAGREB - II. IZBORNA JEDINICA, Hrvatska",16.2582784,45.76097739999999
357,"ALEJA BLAŽA JURIŠIĆA 13, ZAGREB - II. IZBORNA JEDINICA, Hrvatska",16.2990286,45.7360996
358,"ALEJA BLAŽA JURIŠIĆA 13, ZAGREB - II. IZBORNA JEDINICA, Hrvatska",16.2944741,45.7572078
359,"ALEJA BLAŽA JURIŠIĆA 13, ZAGREB - II. IZBORNA JEDINICA, Hrvatska",16.2794535,45.7587316
360,"ULICA JOSIPA HAMMA 2, ZAGREB - II. IZBORNA JEDINICA, Hrvatska",16.217673,45.7238349
361,"ULICA ZDENKA ŠKREBA 3, ZAGREB - II. IZBORNA JEDINICA, Hrvatska",16.2323987,45.7102471
362,"MIROŠEVEČKA CESTA 131, ZAGREB - II. IZBORNA JEDINICA, Hrvatska",16.2518874,45.68404169999999
363,"NOVOSELEČKI PUT 181, ZAGREB - II. IZBORNA JEDINICA, Hrvatska",16.2518874,45.68404169999999
364,"OPOROVEČKI VINOGRADI 20, ZAGREB - II. IZBORNA JEDINICA, Hrvatska",16.2754817,45.67205999999999
365,"OPOROVEČKI VINOGRADI 20, ZAGREB - II. IZBORNA JEDINICA, Hrvatska",16.8409076,45.8958634
366,"DUBRAVA 203, ZAGREB - II. IZBORNA JEDINICA, Hrvatska",16.8423093,45.8987972
367,"TREĆE POLJANICE 2, ZAGREB - II. IZBORNA JEDINICA, Hrvatska",16.842195,45.8997248
368,"TREĆE POLJANICE 2, ZAGREB - II. IZBORNA JEDINICA, Hrvatska",16.8428428,45.9005666
369,"ULICA VILE VELEBITA 15A, ZAGREB - II. IZBORNA JEDINICA, Hrvatska",16.840278,45.9002343
370,"ULICA VILE VELEBITA 15A, ZAGREB - II. IZBORNA JEDINICA, Hrvatska",16.845159,45.9018743
371,"ULICA VILE VELEBITA 15A, ZAGREB - II. IZBORNA JEDINICA, Hrvatska",16.8412606,45.8980507
372,"ULICA VILE VELEBITA 1A, ZAGREB - II. IZBORNA JEDINICA, Hrvatska",16.8380393,45.9036759
373,"ULICA GJURE PREJCA 2, ZAGREB - II. IZBORNA JEDINICA, Hrvatska",16.8444537,45.9069146
374,"KROTOVICA 15, ZAGREB - II. IZBORNA JEDINICA, Hrvatska",16.8482156,45.9073091
375,"KROTOVICA 15, ZAGREB - II. IZBORNA JEDINICA, Hrvatska",16.8510677,45.9069175
376,"TRNOVČICA 2A, ZAGREB - II. IZBORNA JEDINICA, Hrvatska",16.8423093,45.8987972
377,"MIROŠEVEČKI BRIJEG 45, ZAGREB - II. IZBORNA JEDINICA, Hrvatska",16.8404743,45.8950446
378,"ULICA BADEMA 2A, ZAGREB - II. IZBORNA JEDINICA, Hrvatska",16.8394325,45.8948773
379,"ULICA BADEMA 2A, ZAGREB - II. IZBORNA JEDINICA, Hrvatska",16.8311212,45.8986836
380,"ŠTEFANOVEČKA CESTA 67, ZAGREB - II. IZBORNA JEDINICA, Hrvatska",16.8510677,45.9069175
381,"ŠTEFANOVEČKA CESTA 67, ZAGREB - II. IZBORNA JEDINICA, Hrvatska",16.8530018,45.9089681
382,"JAVORINSKA ULICA 5, ZAGREB - II. IZBORNA JEDINICA, Hrvatska",16.8423093,45.8987972
383,"JAVORINSKA ULICA 5, ZAGREB - II. IZBORNA JEDINICA, Hrvatska",16.8597185,45.8913074
384,"SLAVONSKA ULICA 35, ZAGREB - II. IZBORNA JEDINICA, Hrvatska",16.8247113,45.9212515
385,"ALEJA JAVORA 2, ZAGREB - II. IZBORNA JEDINICA, Hrvatska",16.8194787,45.8862688
386,"ALEJA JAVORA 2, ZAGREB - II. IZBORNA JEDINICA, Hrvatska",16.822487,45.9065506
387,"ALEJA JAVORA 2, ZAGREB - II. IZBORNA JEDINICA, Hrvatska",16.8209773,45.9059732
388,"ALEJA JAVORA 2, ZAGREB - II. IZBORNA JEDINICA, Hrvatska",16.7204482,45.8620618
389,"ALEJA JAVORA 2, ZAGREB - II. IZBORNA JEDINICA, Hrvatska",16.8369197,45.8701565
390,"ALEJA JAVORA 23, ZAGREB - II. IZBORNA JEDINICA, Hrvatska",16.9368589,45.8666981
391,"ČULINEČKA CESTA 230, ZAGREB - II. IZBORNA JEDINICA, Hrvatska",16.8517012,45.8457358
392,"I. RETKOVEC 2A, ZAGREB - II. IZBORNA JEDINICA, Hrvatska",16.9314342,45.8950226
393,"SOPNIČKA ULICA 69, ZAGREB - II. IZBORNA JEDINICA, Hrvatska",16.785449,45.880786
394,"VINODOLSKA ULICA 23, ZAGREB - II. IZBORNA JEDINICA, Hrvatska",16.7851755,45.9158787
395,"VINODOLSKA ULICA 23, ZAGREB - II. IZBORNA JEDINICA, Hrvatska",16.903623,45.8461235
396,"VINODOLSKA ULICA 23, ZAGREB - II. IZBORNA JEDINICA, Hrvatska",16.8906094,45.9503433
397,"VINODOLSKA ULICA 23, ZAGREB - II. IZBORNA JEDINICA, Hrvatska",16.8935652,45.9330332
398,"RESNIČKI PUT 81, ZAGREB - II. IZBORNA JEDINICA, Hrvatska",16.8264775,45.8526134
399,"RESNIČKI PUT 81, ZAGREB - II. IZBORNA JEDINICA, Hrvatska",16.8459597,45.857107
400,"RESNIČKI PUT 88, ZAGREB - II. IZBORNA JEDINICA, Hrvatska",16.8712133,45.8933985
401,"RESNIČKI PUT 88, ZAGREB - II. IZBORNA JEDINICA, Hrvatska",16.8745496,45.829288
402,"RESNIČKI PUT 88, ZAGREB - II. IZBORNA JEDINICA, Hrvatska",16.9302371,45.8526536
403,"RESNIČKI PUT 88, ZAGREB - II. IZBORNA JEDINICA, Hrvatska",16.8545087,45.9403582
404,"ULICA KNEZA ADAMA 1, ZAGREB - II. IZBORNA JEDINICA, Hrvatska",16.9192091,45.8640591
405,"VARAŽDINSKA ULICA 36, ZAGREB - II. IZBORNA JEDINICA, Hrvatska",16.7389143,45.8896604
406,"BLAGUŠKA ULICA 63, ZAGREB - II. IZBORNA JEDINICA, Hrvatska",16.8988566,45.9024763
407,"BUDENEČKA CESTA 20A, ZAGREB - II. IZBORNA JEDINICA, Hrvatska",16.7052631,45.8986143
408,"TRG DRAGUTINA DOMJANIĆA 4, ZAGREB - II. IZBORNA JEDINICA, Hrvatska",16.756097,45.90369510000001
409,"PODOLNICA 15, ZAGREB - II. IZBORNA JEDINICA, Hrvatska",16.8073031,45.892965
410,"DOBRODOLSKA CESTA 24, ZAGREB - II. IZBORNA JEDINICA, Hrvatska",16.8843703,45.8581686
411,"ULICA SLOBODE 8, ZAGREB - II. IZBORNA JEDINICA, Hrvatska",16.9188851,45.8895229
412,"ULICA VINKA SEDINIĆA 30A, ZAGREB - II. IZBORNA JEDINICA, Hrvatska",16.8732192,45.9184565
413,"GLAVNA CESTA 35A, ZAGREB - II. IZBORNA JEDINICA, Hrvatska",16.8111607,45.8582101
414,"ULICA STJEPANA VOJNOVIĆA 22, ZAGREB - II. IZBORNA JEDINICA, Hrvatska",16.8643161,45.92353809999999
415,"ULICA IVANA GORANA KOVAČIĆA 19, ZAGREB - II. IZBORNA JEDINICA, Hrvatska",16.8655047,45.8834828
416,"ULICA IVANA GORANA KOVAČIĆA 19, ZAGREB - II. IZBORNA JEDINICA, Hrvatska",16.8809484,45.8786162
417,"ULICA IVANA GORANA KOVAČIĆA 19, ZAGREB - II. IZBORNA JEDINICA, Hrvatska",16.6120911,45.7479402
418,"ULICA IVANA GORANA KOVAČIĆA 19, ZAGREB - II. IZBORNA JEDINICA, Hrvatska",16.6100821,45.7477307
419,"ULICA IVANA GORANA KOVAČIĆA 19, ZAGREB - II. IZBORNA JEDINICA, Hrvatska",16.5998419,45.7564432
420,"ULICA IVANA GORANA KOVAČIĆA 19, ZAGREB - II. IZBORNA JEDINICA, Hrvatska",16.5808003,45.74330690000001
421,"GLAVNIČKA CESTA 26, ZAGREB - II. IZBORNA JEDINICA, Hrvatska",16.6213814,45.75236350000001
422,"GAJEVA ULICA 60, ZAGREB - II. IZBORNA JEDINICA, Hrvatska",16.6132124,45.7476588
423,"GLAVNIČICA 6, ZAGREB - II. IZBORNA JEDINICA, Hrvatska",16.6284268,45.7236269
424,"KAMENŠČICA 4, ZAGREB - II. IZBORNA JEDINICA, Hrvatska",16.634256,45.7614526
425,"FILIPOVIĆEVA ULICA 2, ZAGREB - II. IZBORNA JEDINICA, Hrvatska",16.5731466,45.7732865
426,"JESENOVEČKA CESTA 31, ZAGREB - II. IZBORNA JEDINICA, Hrvatska",16.5535666,45.7913895
427,"CESTA IVANA MAŽURANIĆA 47, ZAGREB - II. IZBORNA JEDINICA, Hrvatska",16.5363787,45.7755045
428,"CESTA IVANA MAŽURANIĆA 152, ZAGREB - II. IZBORNA JEDINICA, Hrvatska",16.5690538,45.7971616
429,"RUMAŠČICA 5, ZAGREB - II. IZBORNA JEDINICA, Hrvatska",16.5679605,45.7854057
430,"KOBILJAČKA CESTA 75, ZAGREB - II. IZBORNA JEDINICA, Hrvatska",16.5401116,45.788706
431,"KOBILJAČKA CESTA 75, ZAGREB - II. IZBORNA JEDINICA, Hrvatska",16.5312284,45.7230828
432,"MESCI 24, ZAGREB - II. IZBORNA JEDINICA, Hrvatska",16.525206,45.7482873
433,"KUČILOVEČKA CESTA 52, ZAGREB - II. IZBORNA JEDINICA, Hrvatska",16.5557392,45.7274045
434,"ULICA OTONA IVEKOVIĆA 16, ZAGREB - II. IZBORNA JEDINICA, Hrvatska",16.5247784,45.7264989
435,"ULICA OTONA IVEKOVIĆA 16, ZAGREB - II. IZBORNA JEDINICA, Hrvatska",16.6495436,45.7847351
436,"ULICA AUGUSTA ŠENOE 46, ZAGREB - II. IZBORNA JEDINICA, Hrvatska",16.6254055,45.78308819999999
437,"PRIGORSKA ULICA 80, ZAGREB - II. IZBORNA JEDINICA, Hrvatska",16.6477352,45.8146095
438,"ULICA DRAGANA PLAMENCA 1, ZAGREB - II. IZBORNA JEDINICA, Hrvatska",16.6814618,45.810967
439,"ULICA DRAGANA PLAMENCA 1, ZAGREB - II. IZBORNA JEDINICA, Hrvatska",16.6810953,45.7564832
440,"ULICA DRAGANA PLAMENCA 1, ZAGREB - II. IZBORNA JEDINICA, Hrvatska",16.6743485,45.781002
441,"ULICA DRAGANA PLAMENCA 1, ZAGREB - II. IZBORNA JEDINICA, Hrvatska",16.6319395,45.7890245
442,"ULICA DRAGANA PLAMENCA 1, ZAGREB - II. IZBORNA JEDINICA, Hrvatska",16.6134268,45.7066927
443,"ULICA POTOČNICA 8, ZAGREB - II. IZBORNA JEDINICA, Hrvatska",16.6467236,45.7475683
444,"ULICA POTOČNICA 8, ZAGREB - II. IZBORNA JEDINICA, Hrvatska",16.7030214,45.7274118
445,"ULICA POTOČNICA 8, ZAGREB - II. IZBORNA JEDINICA, Hrvatska",16.6935874,45.7246647
446,"PARUŽEVINSKA CESTA 34, ZAGREB - II. IZBORNA JEDINICA, Hrvatska",16.7298156,45.74246400000001
447,"ULICA 9. MAJA 4, ZAGREB - II. IZBORNA JEDINICA, Hrvatska",16.7087252,45.7200105
448,"SESVETSKA ULICA 19, ZAGREB - II. IZBORNA JEDINICA, Hrvatska",16.6760112,45.7338761
449,"STROSSMAYEROV TRG 1, ZAGREB - II. IZBORNA JEDINICA, Hrvatska",16.613822,45.6856197
450,"PRIGORSKA ULICA 69A, ZAGREB - II. IZBORNA JEDINICA, Hrvatska",16.5984178,45.6921538
451,"GLAVNA ULICA 2, ZAGREB - II. IZBORNA JEDINICA, Hrvatska",17.2219229,45.5955033
452,"LETNIČKA ULICA 5, ZAGREB - II. IZBORNA JEDINICA, Hrvatska",17.2241309,45.5911653
453,"LETNIČKA ULICA 5, ZAGREB - II. IZBORNA JEDINICA, Hrvatska",17.2340925,45.5907004
454,"LETNIČKA ULICA 5, ZAGREB - II. IZBORNA JEDINICA, Hrvatska",17.2340925,45.5907004
455,"SELNIČKA ULICA 69, ZAGREB - II. IZBORNA JEDINICA, Hrvatska",17.2340925,45.5907004
456,"SOPNIČKA ULICA 69, ZAGREB - II. IZBORNA JEDINICA, Hrvatska",17.2340925,45.5907004
457,"SOPNIČKA ULICA 69, ZAGREB - II. IZBORNA JEDINICA, Hrvatska",17.2235937,45.5876412
458,"ŠKOLSKA ULICA 10, ZAGREB - II. IZBORNA JEDINICA, Hrvatska",17.2241109,45.5673195
459,"ŠKOLSKA ULICA 10, ZAGREB - II. IZBORNA JEDINICA, Hrvatska",17.2183052,45.5920612
460,"ŠKOLSKA ULICA 10, ZAGREB - II. IZBORNA JEDINICA, Hrvatska",17.2219085,45.5927732
461,"ŠKOLSKA ULICA 10, ZAGREB - II. IZBORNA JEDINICA, Hrvatska",17.2183052,45.5920612
462,"ULICA MLADENA HALAPE 8, ZAGREB - II. IZBORNA JEDINICA, Hrvatska",17.2220182,45.5943869
463,"ULICA MLADENA HALAPE 8, ZAGREB - II. IZBORNA JEDINICA, Hrvatska",17.2220182,45.5943869
464,"SOBLINEČKA ULICA 68, ZAGREB - II. IZBORNA JEDINICA, Hrvatska",17.1865428,45.5897125
465,"ULICA OTONA IVEKOVIĆA 16 JUŽNI ULAZ, ZAGREB - II. IZBORNA JEDINICA, Hrvatska",17.1820898,45.604328
466,"ULICA OTONA IVEKOVIĆA 16 JUŽNI ULAZ, ZAGREB - II. IZBORNA JEDINICA, Hrvatska",17.1789208,45.6178082
467,"ULICA POTOČNICA 8, ZAGREB - II. IZBORNA JEDINICA, Hrvatska",17.2241195,45.6075986
468,"ULICA POTOČNICA 8, ZAGREB - II. IZBORNA JEDINICA, Hrvatska",16.2248228,45.8035079
469,"ULICA POTOČNICA 8, ZAGREB - II. IZBORNA JEDINICA, Hrvatska",16.2277315,45.8069095
470,"ULICA IVANA GRANĐE 58, ZAGREB - II. IZBORNA JEDINICA, Hrvatska",16.2277315,45.8069095
471,"ŠIMUNČEVEČKA ULICA 12B, ZAGREB - II. IZBORNA JEDINICA, Hrvatska",16.2277315,45.8069095
472,"ULICA AUGUSTA ŠENOE 51, ZAGREB - II. IZBORNA JEDINICA, Hrvatska",16.2248228,45.8035079
473,"VUGROVEČKA ULICA 33, ZAGREB - II. IZBORNA JEDINICA, Hrvatska",16.2331153,45.8060236
474,"VURNOVEČKA ULICA 11, ZAGREB - II. IZBORNA JEDINICA, Hrvatska",16.2248228,45.8035079
475,"ULICA LJUDEVITA GAJA 27, ZAGREB - II. IZBORNA JEDINICA, Hrvatska",16.2361273,45.80660630000001
476,"BEDENICA 112, BEDENICA, Hrvatska",16.2361273,45.80660630000001
477,"BELOSLAVEC BB, BEDENICA, Hrvatska",16.2316565,45.8114313
478,"TURKOVČINA BB, BEDENICA, Hrvatska",16.2316565,45.8114313
479,"BOSNA BB, BEDENICA, Hrvatska",16.2441378,45.8038807
480,"OMAMNO BB, BEDENICA, Hrvatska",16.2441378,45.8038807
481,"BEDENICA BB, BEDENICA, Hrvatska",16.2441378,45.8038807
482,"BEREK 77 A, BEREK, Hrvatska",16.2441378,45.8038807
483,"POTOK 15, BEREK, Hrvatska",16.2441378,45.8038807
484,"RUŠKOVAC 38, BEREK, Hrvatska",16.2441378,45.8038807
485,"ŠIMLJANICA 53, BEREK, Hrvatska",16.2626308,45.8099003
486,"ŠIMLJANA 30, BEREK, Hrvatska",16.2554979,45.8122335
487,"PODGARIĆ 24 B, BEREK, Hrvatska",16.2612393,45.8141487
488,"NOVO SELO GAREŠNIČKO 28 A, BEREK, Hrvatska",16.2823769,45.7840565
489,"GORNJA GAREŠNICA 36, BEREK, Hrvatska",16.2823769,45.7840565
490,"ŠIMLJANIK 22, BEREK, Hrvatska",16.2832494,45.7820976
491,"KOSTANJEVAC 93, BEREK, Hrvatska",16.2790079,45.77469900000001
492,"BEGOVAČA 27, BEREK, Hrvatska",16.2933742,45.804605
493,"OŠTRI ZID 37 A, BEREK, Hrvatska",16.2344267,45.8310571
494,"KRIVAJA 18, BEREK, Hrvatska",16.2753889,45.8235749
495,"STJEPANA RADIĆA 80, BRCKOVLJANI, BRCKOVLJANI, Hrvatska",16.9645198,45.61933560000001
496,"HREBINEČKA 81, HREBINEC, BRCKOVLJANI, Hrvatska",16.9466952,45.6051693
497,"ZAGREBAČKA 29, GRAČEC, BRCKOVLJANI, Hrvatska",17.0060265,45.6081964
498,"ZAGREBAČKA ULICA 33, ŠTAKOROVEC, BRCKOVLJANI, Hrvatska",16.9215696,45.6382738
499,"S. RADIĆA 42, PRIKRAJ, BRCKOVLJANI, Hrvatska",16.9314228,45.6395957
500,"ZAGREBAČKA 69, GORNJA GREDA, BRCKOVLJANI, Hrvatska",16.8971265,45.6119612
501,"I. HORVATIĆA 91, LUPOGLAV, BRCKOVLJANI, Hrvatska",16.8691536,45.6467962
502,"ZAGREBAČKA ULICA 52, PREČEC, BRCKOVLJANI, Hrvatska",16.838718,45.6335454
503,"ZAGREBAČKA ULICA 47, TEDROVEC, BRCKOVLJANI, Hrvatska",16.8523683,45.583139
504,"GORNJI DEŽANOVAC 46, DEŽANOVAC, Hrvatska",16.8523683,45.583139
505,"DONJI DEŽANOVAC 285, DEŽANOVAC, Hrvatska",16.9389619,45.5909401
506,"IVANOVO POLJE 53, DEŽANOVAC, Hrvatska",16.9235101,45.5287361
507,"KREŠTELOVAC 65, DEŽANOVAC, Hrvatska",16.9350292,45.55463899999999
508,"BRAĆE RADIĆA 14, DEŽANOVAC, Hrvatska",16.8701974,45.5429037
509,"BANA JELAČIĆA BB, DEŽANOVAC, Hrvatska",16.9399684,45.57337769999999
510,"GOVEĐE POLJE 31, DEŽANOVAC, Hrvatska",16.8854236,45.5188816
511,"HRVATSKIH VELIKANA 1, DEŽANOVAC, Hrvatska",16.9100561,45.5186924
512,"GORNJI SREĐANI 70, DEŽANOVAC, Hrvatska",16.9898299,45.5505959
513,"DONJI SREĐANI 22, DEŽANOVAC, Hrvatska",16.9419743,45.5746558
514,"GOLUBINJAK 62, DEŽANOVAC, Hrvatska",17.0104096,45.5173886
515,"UL. SVETE MARGARETE 4, DUBRAVA, DUBRAVA, Hrvatska",17.0233048,45.5344078
516,"UL. BRAĆE RADIĆ 2, DUBRAVA, DUBRAVA, Hrvatska",16.9405797,45.5771893
517,"ZETKAN, DUBRAVA, Hrvatska",16.8913153,45.574724
518,"ZGALIŠĆE, DUBRAVA, Hrvatska",16.9729761,45.58932679999999
519,"NOVAKI 48, DUBRAVA, Hrvatska",17.1699046,45.7029109
520,"KUNĐEVAC 4, DUBRAVA, Hrvatska",17.1726151,45.6997151
521,"BREZJE, DUBRAVA, Hrvatska",17.166993,45.7031161
522,"GRABEREC, DUBRAVA, Hrvatska",17.1938462,45.7046308
523,"BAĐINEC, DUBRAVA, Hrvatska",17.1699643,45.6880086
524,"ŽUKOVEC, DUBRAVA, Hrvatska",17.218716,45.6723825
525,"SVINJAREC, DUBRAVA, Hrvatska",17.2515034,45.673496
526,"KOSTANJ, DUBRAVA, Hrvatska",17.2778501,45.6823669
527,"PODLUŽAN, DUBRAVA, Hrvatska",17.2473132,45.6855612
528,"DONJI VUKŠINAC, DUBRAVA, Hrvatska",17.0746477,45.6720513
529,"ZVEKOVAC, DUBRAVA, Hrvatska",17.1090096,45.6733615
530,"GORNJI MARINKOVAC, DUBRAVA, Hrvatska",17.1235173,45.6803171
531,"DONJI MARINKOVAC 12, DUBRAVA, Hrvatska",17.1409589,45.6961782
532,"MOSTARI, DUBRAVA, Hrvatska",17.1144737,45.70687239999999
533,"RADULEC, DUBRAVA, Hrvatska",17.1394951,45.7347586
534,"PARUŽEVAC, DUBRAVA, Hrvatska",17.3027569,45.7478527
535,"DUBRAVSKI MARKOVAC, DUBRAVA, Hrvatska",17.2479035,45.7145522
536,"KORITNA, DUBRAVA, Hrvatska",16.3959765,45.7071022
537,"LADINA, DUBRAVA, Hrvatska",16.3732493,45.7154242
538,"NOVA KAPELA, DUBRAVA, Hrvatska",16.3828659,45.7187919
539,"STARA KAPELA, DUBRAVA, Hrvatska",16.3889139,45.7029529
540,"HABJANOVAC, DUBRAVA, Hrvatska",16.3159687,45.7168826
541,"BATINJANI 70, ĐULOVAC, Hrvatska",16.3515285,45.684222
542,"VUKOVJE 33, ĐULOVAC, Hrvatska",16.3477179,45.7089559
543,"BOROVA KOSA 41, ĐULOVAC, Hrvatska",16.3449635,45.6473966
544,"MALA MASLENJAČA 2D, ĐULOVAC, Hrvatska",16.2979829,45.6419851
545,"VELIKI BASTAJI 82, ĐULOVAC, Hrvatska",16.2956479,45.6639958
546,"VELIKI MILETINAC 38, ĐULOVAC, Hrvatska",16.4483754,45.7128114
547,"FRANKOPANSKA 2, ĐULOVAC, Hrvatska",16.4684868,45.7107872
548,"FRANKOPANSKA 2, ĐULOVAC, Hrvatska",16.5094041,45.7209827
549,"MALA BABINA GORA 16, ĐULOVAC, Hrvatska",16.4717302,45.6930636
550,"KORENIČANI BB, ĐULOVAC, Hrvatska",16.4011688,45.7114067
551,"FARKAŠEVAC 43, FARKAŠEVAC, Hrvatska",16.3981492,45.7107602
552,"KABAL, FARKAŠEVAC, Hrvatska",16.3925895,45.7068023
553,"DONJI MARKOVAC, FARKAŠEVAC, Hrvatska",16.3939242,45.7051008
554,"DONJI BOLČ, FARKAŠEVAC, Hrvatska",16.3801725,45.6612875
555,"GORNJI BOLČ, FARKAŠEVAC, Hrvatska",16.4051356,45.6962749
556,"MAJUR, FARKAŠEVAC, Hrvatska",16.4011688,45.7114067
557,"BREZINE, FARKAŠEVAC, Hrvatska",16.5522684,46.0251387
558,"MAČKI, FARKAŠEVAC, Hrvatska",16.5451613,46.02591349999999
559,"PRAŠĆEVAC, FARKAŠEVAC, Hrvatska",16.5424587,46.0253172
560,"ZVONIK, FARKAŠEVAC, Hrvatska",16.5445532,46.0247988
561,"ŽABNICA, FARKAŠEVAC, Hrvatska",16.5445532,46.0247988
562,"IVANČANI, FARKAŠEVAC, Hrvatska",16.5377628,46.0226988
563,"DROPKOVEC 10, GORNJA RIJEKA, Hrvatska",16.546132,46.0204445
564,"FAJEROVEC BB, GORNJA RIJEKA, Hrvatska",16.5463295,46.0174704
565,"ULICA JABLANOVA 3, GORNJA RIJEKA, Hrvatska",16.5451383,46.0139479
566,"KOLAREC 36, GORNJA RIJEKA, Hrvatska",16.5448855,46.0218548
567,"KOSTANJEVEC RIJEČKI 29, GORNJA RIJEKA, Hrvatska",16.5399336,46.0347658
568,"POFUKI 40, GORNJA RIJEKA, Hrvatska",16.5402038,46.0399653
569,"GRADEC 134, GRADEC, Hrvatska",16.544997,46.0285796
570,"GRADEČKI PAVLOVEC, GRADEC, Hrvatska",16.5440253,46.0288948
571,"POTOČEC, GRADEC, Hrvatska",16.5603147,46.0461639
572,"MALI BREZOVEC, GRADEC, Hrvatska",16.5734371,46.14916119999999
573,"VELIKI BREZOVEC, GRADEC, Hrvatska",16.4969182,45.9962875
574,"PODJALES, GRADEC, Hrvatska",16.5145997,46.0152966
575,"REPINEC, GRADEC, Hrvatska",16.566201,45.9909621
576,"FESTINEC, GRADEC, Hrvatska",16.6443119,46.0735369
577,"POKASIN, GRADEC, Hrvatska",16.6221937,46.0876478
578,"CUGOVEC, GRADEC, Hrvatska",16.6352241,46.0958664
579,"GRABRIĆ 53, GRADEC, Hrvatska",16.5608635,46.0067278
580,"ZABRĐE, GRADEC, Hrvatska",16.5570632,45.9870816
581,"FUKA, GRADEC, Hrvatska",16.4821997,46.0398676
582,"STARI GLOG, GRADEC, Hrvatska",16.4551101,46.0132352
583,"REMETINEC 10, GRADEC, Hrvatska",16.5843373,46.0025438
584,"HAGANJ, GRADEC, Hrvatska",16.5866498,46.0168933
585,"LUBENA, GRADEC, Hrvatska",16.4808957,46.0321109
586,"TUČENIK, GRADEC, Hrvatska",16.5562694,46.1026031
587,"MOSLAVAČKA 154, HERCEGOVAC, Hrvatska",16.5609074,45.978357
588,"MOSLAVAČKA ULICA 142, HERCEGOVAC, Hrvatska",16.5665649,46.0786235
589,"VELIKA TRNAVA 50, HERCEGOVAC, Hrvatska",16.6203574,46.040966
590,"LADISLAV 114, HERCEGOVAC, Hrvatska",16.5903734,46.02905029999999
591,"ILOVSKI KLOKOČEVAC 43, HERCEGOVAC, Hrvatska",16.471236,45.9548961
592,"PALEŠNIK 105, HERCEGOVAC, Hrvatska",16.5384707,46.1261662
593,"IVANSKA, SLAVKA KOLARA 1, IVANSKA, Hrvatska",16.4490309,45.9980661
594,"KOLAREVO SELO 71, IVANSKA, Hrvatska",16.5394883,45.9690892
595,"UTISKANI 31 A, IVANSKA, Hrvatska",16.4937653,46.0253401
596,"ĐURĐIC 33, IVANSKA, Hrvatska",16.5282966,46.0839396
597,"KRIŽIC 84, IVANSKA, Hrvatska",16.5188699,45.9977922
598,"RASTOVAC 28, IVANSKA, Hrvatska",16.509475,45.9811977
599,"SAMARICA 60A, IVANSKA, Hrvatska",16.6950065,46.0406809
600,"DONJA PETRIČKA 60, IVANSKA, Hrvatska",16.7112966,46.0160565
601,"GORNJA PETRIČKA 30, IVANSKA, Hrvatska",16.6795753,46.0284197
602,"BABINAC 50, IVANSKA, Hrvatska",16.5703233,46.0443501
603,"SRIJEDSKA 47, IVANSKA, Hrvatska",16.4757704,45.9892604
604,"STARA PLOŠĆICA 72, IVANSKA, Hrvatska",16.6778765,46.0527592
605,"PALJEVINE 9, IVANSKA, Hrvatska",16.5934512,46.0757505
606,"TRG STJEPANA RADIĆA 5, KALNIK, Hrvatska",16.5141154,46.1004705
607,"ĐURCI 2, KALNIK, Hrvatska",16.4754352,46.007279
608,"POTOK KALNIČKI 38, KALNIK, Hrvatska",16.2421679,45.959037
609,"DONJE BORJE 19, KALNIK, Hrvatska",16.2433675,45.9596818
610,"ŠOPRON 57, KALNIK, Hrvatska",16.2531851,45.9662436
611,"POPOVEC KALNIČKI 5, KALNIK, Hrvatska",16.2577256,45.96163079999999
612,"VOJNOVEC KALNIČKI 70, KALNIK, Hrvatska",16.2357986,45.9757311
613,"BILOGORSKA 56, KAPELA, Hrvatska",16.2333509,45.9608782
614,"BOTINAC 29, KAPELA, Hrvatska",16.1946999,45.9592761
615,"LIPOVO BRDO 38, KAPELA, Hrvatska",16.2124128,45.9510099
616,"SREDNJA DIKLENICA 23, KAPELA, Hrvatska",16.2240608,45.9413491
617,"NOVI SKUCANI 39, KAPELA, Hrvatska",16.2310471,45.9316867
618,"STARA DIKLENICA 13, KAPELA, Hrvatska",16.226484,45.9505115
619,"KOBASIČARI 136, KAPELA, Hrvatska",16.2438821,45.9301344
620,"STANIĆI 39, KAPELA, Hrvatska",16.2302385,45.9097091
621,"STARI SKUCANI 81, KAPELA, Hrvatska",16.1900297,45.90914249999999
622,"STARČEVLJANI 55, KAPELA, Hrvatska",16.2027751,45.9378581
623,"NOVA DIKLENICA 15, KAPELA, Hrvatska",16.1926611,45.9445118
624,"JABUČETA 40A, KAPELA, Hrvatska",16.1880761,45.9416857
625,"GORNJE ZDELICE 52, KAPELA, Hrvatska",16.1776988,45.9333163
626,"SREDNJI  MOSTI 31 A, KAPELA, Hrvatska",16.1974826,45.92862820000001
627,"DONJI MOSTI 57, KAPELA, Hrvatska",16.2609985,45.90227669999999
628,"POLJANČANI 22, KAPELA, Hrvatska",16.2486282,45.8536502
629,"GORNJE SREDICE 76, KAPELA, Hrvatska",16.2322777,45.8590895
630,"ŠIPTARI 11A, KAPELA, Hrvatska",16.2440548,45.897411
631,"PAVLIN KLOŠTAR 44, KAPELA, Hrvatska",16.2480639,45.8882456
632,"VISOVI 33 A, KAPELA, Hrvatska",16.282787,45.8803931
633,"TVRDA REKA 22A, KAPELA, Hrvatska",16.2171367,45.8922672
634,"PRNJAVOR 20, KAPELA, Hrvatska",16.2467497,45.8710455
635,"BABOTOK 21, KAPELA, Hrvatska",16.2083866,45.9086121
636,"DONJA OBREŠKA BB, KLOŠTAR IVANIĆ, Hrvatska",16.2125609,45.9273235
637,"GORNJA OBREŠKA BB, KLOŠTAR IVANIĆ, Hrvatska",16.2027062,45.8971069
638,"STARA MARČA BB, KLOŠTAR IVANIĆ, Hrvatska",16.2405663,45.9806608
639,"BEŠLINEC BB, KLOŠTAR IVANIĆ, Hrvatska",16.2613404,45.9741293
640,"KRIŽCI BB, KLOŠTAR IVANIĆ, Hrvatska",16.2459374,45.9969279
641,"ČEMERNICA LONJSKA BB, KLOŠTAR IVANIĆ, Hrvatska",16.2239944,46.015647
642,"TRG SVETOG IVANA BB, KLOŠTAR IVANIĆ, KLOŠTAR IVANIĆ, Hrvatska",16.2669331,45.9800233
643,"TRG SVETOG IVANA BB, KLOŠTAR IVANIĆ, KLOŠTAR IVANIĆ, Hrvatska",16.1987364,46.01782439999999
644,"LIPOVEC LONJSKI BB, KLOŠTAR IVANIĆ, Hrvatska",16.2144758,46.015173
645,"ŠČAPOVEC 42, KLOŠTAR IVANIĆ, Hrvatska",16.2559523,46.00584749999999
646,"ŠKOLSKA 22, KLOŠTAR IVANIĆ, KLOŠTAR IVANIĆ, Hrvatska",16.2855164,46.0041584
647,"ŠKOLSKA 22, KLOŠTAR IVANIĆ, KLOŠTAR IVANIĆ, Hrvatska",16.2954429,45.9951459
648,"DUBRAVAČKA 37, PREDAVEC, KLOŠTAR IVANIĆ, Hrvatska",16.3270611,46.007888
649,"GRANIČARSKA 15, SOBOČANI, KLOŠTAR IVANIĆ, Hrvatska",16.3487063,46.0147695
650,"KONČANICA 260, KONČANICA, Hrvatska",16.3385379,45.977785
651,"OTKOPI 8, KONČANICA, Hrvatska",16.261823,45.9418268
652,"DARUVARSKI BRESTOVAC 185, KONČANICA, Hrvatska",16.2580058,45.9477029
653,"ŠUPLJA LIPA 28, KONČANICA, Hrvatska",16.2787963,45.9411697
654,"DIOŠ 68/A, KONČANICA, Hrvatska",16.2907991,45.9521794
655,"STRAŽANAC 66, KONČANICA, Hrvatska",16.2887114,45.9666442
656,"IMSOVAC 67, KONČANICA, Hrvatska",16.2920558,45.9820574
657,"BUNJANI, MOSLAVAČKA ULICA 71, KRIŽ, Hrvatska",16.2937658,45.98763109999999
658,"GORNJI PRNJAROVEC 28, KRIŽ, Hrvatska",16.4185861,45.88523439999999
659,"REČICA KRIŠKA, KRIŠKA ULICA 19, KRIŽ, Hrvatska",16.4221182,45.8899305
660,"RAZLJEV, PEŠČENIĆKA ULICA 2, KRIŽ, Hrvatska",16.4289808,45.887142
661,"KONŠĆANI 9, KRIŽ, Hrvatska",16.4181434,45.883555
662,"DONJI PRNJAROVEC 20, KRIŽ, Hrvatska",16.4162964,45.88364
663,"ŠUŠNJARI 74, KRIŽ, Hrvatska",16.4046711,45.8805373
664,"JOHOVEC 29 A, KRIŽ, Hrvatska",16.4046711,45.8805373
665,"MALA HRASTILNICA 29, KRIŽ, Hrvatska",16.4311108,45.901449
666,"VELIKA HRASTILNICA 14, KRIŽ, Hrvatska",16.392463,45.8773715
667,"ŠIRINEC 49, KRIŽ, Hrvatska",16.416766,45.8839523
668,"OKEŠINEC, ČESMANSKA ULICA 130, KRIŽ, Hrvatska",16.3885355,45.86557759999999
669,"VEZIŠĆE 31, KRIŽ, Hrvatska",16.4047009,45.8914524
670,"OBEDIŠĆE, ZAGREBAČKA ULICA 113, KRIŽ, Hrvatska",16.4135978,45.8948038
671,"NOVOSELEC, MOSLAVAČKA ULICA 115, KRIŽ, Hrvatska",16.4121565,45.8672331
672,"NOVOSELEC, ULICA HRVATSKE MLADEŽI 23 A, KRIŽ, Hrvatska",16.4403761,45.8481364
673,"KRIŽ, ŠKOLSKA ULICA 20, KRIŽ, Hrvatska",16.4177609,45.8262939
674,"KRIŽ, ŠKOLSKA ULICA 20, KRIŽ, Hrvatska",16.4212961,45.8582319
675,"KRIŽ, ŠKOLSKA ULICA 20, KRIŽ, Hrvatska",16.4579969,45.8652544
676,"TRG S. RADIĆA 9, NOVA RAČA, Hrvatska",16.4491009,45.9702755
677,"MEĐURAČA 204A, NOVA RAČA, Hrvatska",16.4269728,45.95652949999999
678,"DAUTAN 98, NOVA RAČA, Hrvatska",16.4298489,45.9277094
679,"NEVINAC 32, NOVA RAČA, Hrvatska",16.4448651,45.927526
680,"STARA RAČA 74, NOVA RAČA, Hrvatska",16.4319231,45.9178013
681,"TOCILJEVAC 7, NOVA RAČA, Hrvatska",16.4319231,45.9178013
682,"SASOVAC 25, NOVA RAČA, Hrvatska",16.4203787,45.9094877
683,"ORLOVAC 65A, NOVA RAČA, Hrvatska",16.4054023,45.9205896
684,"SLOVINSKA KOVAČICA 67, NOVA RAČA, Hrvatska",16.402982,45.90631519999999
685,"KOZAREVAC RAČANSKI 44, NOVA RAČA, Hrvatska",16.4155909,45.9231942
686,"BULINAC 90, NOVA RAČA, Hrvatska",16.322842,45.85673269999999
687,"BEDENIK 125, NOVA RAČA, Hrvatska",16.3245633,45.8707085
688,"DRLJANOVAC 34, NOVA RAČA, Hrvatska",16.354485,45.8698565
689,"PRESEKA 57, PRESEKA, Hrvatska",16.317349,45.8927443
690,"SLATINA BB, PRESEKA, Hrvatska",16.3740899,45.897106
691,"KAMENICA 12A, PRESEKA, Hrvatska",16.3546782,45.9024187
692,"POGANČEC BB, PRESEKA, Hrvatska",16.3524212,45.9147029
693,"ŠELOVEC BB, PRESEKA, Hrvatska",16.3600185,45.88561869999999
694,"VINKOVEC BB, PRESEKA, Hrvatska",16.3407625,45.8979072
695,"KRUŠLJEVEC 30, PRESEKA, Hrvatska",16.3101718,45.8852676
696,"GORNJAKI 13, PRESEKA, Hrvatska",16.3041249,45.9001029
697,"LEDINA BB, PRESEKA, Hrvatska",16.452447,45.9727217
698,"KRALJEV VRH 11, PRESEKA, Hrvatska",16.4155909,45.9231942
699,"ŽABNJAK 12, PRESEKA, Hrvatska",16.074456,45.8571369
700,"DONJA VELIKA 7, PRESEKA, Hrvatska",16.0599579,45.8930596
701,"SREDNJA VELIKA 13A, PRESEKA, Hrvatska",16.0599579,45.8930596
702,"GORNJA VELIKA 12, PRESEKA, Hrvatska",16.0540246,45.8727483
703,"RAKOVEC 54, RAKOVEC, Hrvatska",16.0540246,45.8727483
704,"MLAKA 30, RAKOVEC, Hrvatska",16.0774849,45.8299443
705,"DROPČEVEC 41, RAKOVEC, Hrvatska",16.0774849,45.8299443
706,"BANIČEVEC 39, RAKOVEC, Hrvatska",16.0826815,45.8293806
707,"DVORIŠĆE 14, RAKOVEC, Hrvatska",16.0440116,45.8313591
708,"VALETIĆ 51, RAKOVEC, Hrvatska",16.0440116,45.8313591
709,"HRUŠKOVEC 6A, RAKOVEC, Hrvatska",16.0440116,45.8313591
710,"HUDOVO 22, RAKOVEC, Hrvatska",16.0440116,45.8313591
711,"LIPNICA 31, RAKOVEC, Hrvatska",16.0440116,45.8313591
712,"BREZANI 51, RAKOVEC, Hrvatska",16.0395805,45.8333793
713,"GOLI VRH 1 A, RAKOVEC, Hrvatska",16.0395805,45.8333793
714,"TRG SV. FLORIJANA 16, RASINJA, Hrvatska",16.0395805,45.8333793
715,"TRG MLADOSTI 22, RASINJA, Hrvatska",16.0356478,45.8383431
716,"TRG SVETOG TROJSTVA 14, RASINJA, Hrvatska",16.0422611,45.8366955
717,"GORICA 11, RASINJA, Hrvatska",16.054264,45.8487148
718,"KUZMINEC 143A, RASINJA, Hrvatska",16.0560947,45.8528662
719,"KOLEDINEC 63B, RASINJA, Hrvatska",16.035188,45.851028
720,"BELANOVO SELO 24, RASINJA, Hrvatska",16.0529351,45.83483289999999
721,"IVANČEC 30A, RASINJA, Hrvatska",16.0529351,45.83483289999999
722,"DUGA RIJEKA 26, RASINJA, Hrvatska",16.0529351,45.83483289999999
723,"RIBNJAK 12, RASINJA, Hrvatska",16.0529351,45.83483289999999
724,"RADELJEVO SELO 31, RASINJA, Hrvatska",16.0529351,45.83483289999999
725,"PRKOS 28, RASINJA, Hrvatska",16.0498419,45.8355661
726,"VELIKI POGANAC 38, RASINJA, Hrvatska",16.0516877,45.8358244
727,"LUDBREŠKI IVANAC 34, RASINJA, Hrvatska",16.0371911,45.8677091
728,"TRG HRVATSKIH BRANITELJA 2, ROVIŠĆE, Hrvatska",16.0819567,45.8540971
729,"TRG HRVATSKIH GRANIČARA 25, ROVIŠĆE, Hrvatska",16.058327,45.8535987
730,"PREKOBRDO 100, ROVIŠĆE, Hrvatska",16.058327,45.8535987
731,"DOMANKUŠ 44, ROVIŠĆE, Hrvatska",16.0642071,45.82896849999999
732,"GORNJE ROVIŠĆE 44, ROVIŠĆE, Hrvatska",16.0707737,45.82980509999999
733,"KAKINAC 32, ROVIŠĆE, Hrvatska",16.0707737,45.82980509999999
734,"KOVAČEVAC 29, ROVIŠĆE, Hrvatska",16.0591946,45.8385921
735,"PODGORCI 68, ROVIŠĆE, Hrvatska",16.0591946,45.8385921
736,"TUK 69, ROVIŠĆE, Hrvatska",16.0591946,45.8385921
737,"ŽABJAK 40, ROVIŠĆE, Hrvatska",16.0573678,45.8351283
738,"KRALJEVAC 292, ROVIŠĆE, Hrvatska",16.0619024,45.83258619999999
739,"LIPOVČANI 14, ROVIŠĆE, Hrvatska",16.0699393,45.8328333
740,"SEVERIN 137, SEVERIN, Hrvatska",16.0699393,45.8328333
741,"SEVERIN 235, SEVERIN, Hrvatska",16.0693902,45.835537
742,"OROVAC 49, SEVERIN, Hrvatska",16.0292916,45.8612087
743,"STJEPANA RADIĆA 120, SIRAČ, Hrvatska",16.0656844,45.81819520000001
744,"VLADIMIRA NAZORA 10, SIRAČ, Hrvatska",16.0656844,45.81819520000001
745,"ŠIBOVAC 16A, SIRAČ, Hrvatska",16.0453236,45.82187920000001
746,"MILJANOVAC 55, SIRAČ, Hrvatska",16.0453236,45.82187920000001
747,"KIP 63, SIRAČ, Hrvatska",16.050485,45.8261596
748,"PAKRANI 54, SIRAČ, Hrvatska",16.050485,45.8261596
749,"BIJELA 26, SIRAČ, Hrvatska",16.0513018,45.8203627
750,"SOKOLOVAC, SOKOLOVAC, Hrvatska",16.0683762,45.8264273
751,"LEPAVINA 20, SOKOLOVAC, Hrvatska",16.0683762,45.8264273
752,"DONJA VELIKA, SOKOLOVAC, Hrvatska",16.0683762,45.8264273
753,"HUDOVLJANI, SOKOLOVAC, Hrvatska",16.0683762,45.8264273
754,"PEŠČENIK, SOKOLOVAC, Hrvatska",16.0683762,45.8264273
755,"DONJI MASLARAC, SOKOLOVAC, Hrvatska",16.0693617,45.8254943
756,"MALA MUČNA, SOKOLOVAC, Hrvatska",16.0723634,45.8054462
757,"MALA BRANJSKA, SOKOLOVAC, Hrvatska",16.0759359,45.827111
758,"LADISLAV SOKOLOVAČKI, SOKOLOVAC, Hrvatska",16.0606494,45.821618
759,"MILIČANI, SOKOLOVAC, Hrvatska",16.0563701,45.8263882
760,"TRNOVAC SOKOLOVAČKI, SOKOLOVAC, Hrvatska",16.0563701,45.8263882
761,"MALI POGANAC, SOKOLOVAC, Hrvatska",16.0563701,45.8263882
762,"VELIKA MUČNA, SOKOLOVAC, Hrvatska",16.0563701,45.8263882
763,"DOMAJI, SOKOLOVAC, Hrvatska",16.0607005,45.8146748
764,"BREZOVLJANI 121, SVETI IVAN ŽABNO, Hrvatska",16.0607005,45.8146748
765,"CEPIDLAK 130, SVETI IVAN ŽABNO, Hrvatska",16.0624944,45.814146
766,"TRG SLOBODE 1, SVETI IVAN ŽABNO, Hrvatska",16.0624944,45.814146
767,"HRSOVO 69, SVETI IVAN ŽABNO, Hrvatska",16.0624944,45.814146
768,"KENĐELOVEC 93, SVETI IVAN ŽABNO, Hrvatska",16.0624944,45.814146
769,"LADINEC 28, SVETI IVAN ŽABNO, Hrvatska",16.1619432,45.904753
770,"MARKOVAC KRIŽEVAČKI 21, SVETI IVAN ŽABNO, Hrvatska",16.1156853,45.82989140000001
771,"NOVI GLOG 34, SVETI IVAN ŽABNO, Hrvatska",16.1300591,45.9290088
772,"RAŠĆANI 24, SVETI IVAN ŽABNO, Hrvatska",16.1699327,45.8390561
773,"TRG KARLA LUKAŠA 1, SVETI IVAN ŽABNO, Hrvatska",16.1105609,45.8264294
774,"TRG KARLA LUKAŠA 11, SVETI IVAN ŽABNO, Hrvatska",16.1898191,45.8301222
775,"PURGA 53, SVETI IVAN ŽABNO, Hrvatska",16.1012156,45.85959219999999
776,"ŠTEFANCI-IŠTOKI 12, SVETI IVAN ŽABNO, Hrvatska",16.3916824,45.7026468
777,"ŠKRINJARI 86, SVETI IVAN ŽABNO, Hrvatska",16.1591695,45.8114709
778,"BUDILOVO 68, SVETI IVAN ŽABNO, Hrvatska",16.1138407,45.8784454
779,"DVORIŠĆE 112, SVETI IVAN ŽABNO, Hrvatska",16.1439321,45.8823274
780,"GORNJE SELO 55, SVETI IVAN ŽABNO, Hrvatska",15.9685287,45.818211
781,"GRUBIŠEVO 17, SVETI IVAN ŽABNO, Hrvatska",15.9685287,45.818211
782,"HIŽANOVEC 18, SVETI PETAR OREHOVEC, Hrvatska",15.9685287,45.818211
783,"VINAREC 101, SVETI PETAR OREHOVEC, Hrvatska",15.9685287,45.818211
784,"SVETI PETAR OREHOVEC 90, SVETI PETAR OREHOVEC, Hrvatska",15.9685287,45.818211
785,"MEĐA 82, SVETI PETAR OREHOVEC, Hrvatska",15.9685287,45.818211
786,"BREGI 66, SVETI PETAR OREHOVEC, Hrvatska",16.1452271,45.9373309
787,"GORNJI FODROVEC 26, SVETI PETAR OREHOVEC, Hrvatska",15.9762942,45.8059461
788,"MOKRICE MIHOLEČKE 34, SVETI PETAR OREHOVEC, Hrvatska",16.2122018,45.8477591
789,"MIHOLEC 50, SVETI PETAR OREHOVEC, Hrvatska",16.0606424,45.8905504
790,"GREGUROVEC 65, SVETI PETAR OREHOVEC, Hrvatska",15.9979191,45.8188462
791,"KAPELA RAVENSKA 33, SVETI PETAR OREHOVEC, Hrvatska",16.1507793,45.9157241
792,"BLAGAJI 3, SVETI PETAR OREHOVEC, Hrvatska",16.1239466,45.9087843
793,"BOČKOVEC 60, SVETI PETAR OREHOVEC, Hrvatska",16.1193587,45.92346999999999
794,"SELANEC 90, SVETI PETAR OREHOVEC, Hrvatska",16.1023534,45.9126485
795,"GUŠČEROVEC 23, SVETI PETAR OREHOVEC, Hrvatska",16.161397,45.8221032
796,"LASOVAC 122, ŠANDROVAC, Hrvatska",16.161397,45.8221032
797,"RAVNEŠ 78, ŠANDROVAC, Hrvatska",16.1481679,45.8299817
798,"KAŠLJAVAC 27, ŠANDROVAC, Hrvatska",16.0917918,45.9124799
799,"PUPELICA 44, ŠANDROVAC, Hrvatska",16.105942,45.8302409
800,"JASENIK 7, ŠANDROVAC, Hrvatska",16.105942,45.8302409
801,"BJELOVARSKA 6, ŠANDROVAC, Hrvatska",15.9836602,45.8063249
802,"NARTA 294, ŠTEFANJE, Hrvatska",16.063468,45.9007133
803,"NARTA 180, ŠTEFANJE, Hrvatska",16.11305,45.8125367
804,"ŠTEFANJE 61, ŠTEFANJE, Hrvatska",16.11305,45.8125367
805,"ŠTEFANJE 236 A, ŠTEFANJE, Hrvatska",16.11305,45.8125367
806,"STARO ŠTEFANJE 90, ŠTEFANJE, Hrvatska",16.11305,45.8125367
807,"LAMINAC 133, ŠTEFANJE, Hrvatska",16.11305,45.8125367
808,"BLATNICA 78, ŠTEFANJE, Hrvatska",15.9061296,45.8103306
809,"DONJA ŠUŠNJARA 67, ŠTEFANJE, Hrvatska",15.9061296,45.8103306
810,"GORNJA ŠUŠNJARA 24 A, ŠTEFANJE, Hrvatska",15.9061296,45.8103306
811,"STARINE 13, ŠTEFANJE, Hrvatska",16.1309696,45.88456780000001
812,"DASKATICA 26, ŠTEFANJE, Hrvatska",16.0901791,45.9256243
813,"HRVATSKIH MUČENIKA 159, VELIKA PISANICA, Hrvatska",16.0112769,45.81450599999999
814,"TRG HRVATSKIH BRANITELJA 3, VELIKA PISANICA, Hrvatska",15.9794879,45.8091594
815,"POLUM 15, VELIKA PISANICA, Hrvatska",16.0619438,45.8998634
816,"BABINAC 34, VELIKA PISANICA, Hrvatska",16.0895917,45.8936923
817,"RIBNJAČKA 38, VELIKA PISANICA, Hrvatska",16.1360329,45.8322878
818,"NOVA PISANICA 10, VELIKA PISANICA, Hrvatska",16.1360329,45.8322878
819,"BAČKOVICA 60, VELIKA PISANICA, Hrvatska",16.1360329,45.8322878
820,"ČAĐAVAC 42, VELIKA PISANICA, Hrvatska",16.1340661,45.8167105
821,"VELIKA TRNOVITICA 223 A, VELIKA TRNOVITICA, Hrvatska",16.0606494,45.821618
822,"MALA TRNOVITICA 22 A, VELIKA TRNOVITICA, Hrvatska",16.0606494,45.821618
823,"NOVA PLOŠČICA 73, VELIKA TRNOVITICA, Hrvatska",15.9260183,45.8124103
824,"GORNJA PLOŠČICA 18 A, VELIKA TRNOVITICA, Hrvatska",15.9260183,45.8124103
825,"GORNJA TRNOVITICA 25, VELIKA TRNOVITICA, Hrvatska",15.9260183,45.8124103
826,"MLINSKI VINOGRADI 18 A, VELIKA TRNOVITICA, Hrvatska",15.9260183,45.8124103
827,"VELIKA MLINSKA 32 A, VELIKA TRNOVITICA, Hrvatska",16.1842773,45.8120225
828,"MALA MLINSKA 9 A, VELIKA TRNOVITICA, Hrvatska",16.1842773,45.8120225
829,"IGNACA FRANCIŠKOVIĆA 38, VELIKI GRĐEVAC, Hrvatska",16.1550004,45.8642271
830,"TRG M. LOVRAKA 11, VELIKI GRĐEVAC, Hrvatska",16.105942,45.8302409
831,"V. NAZORA 55, VELIKI GRĐEVAC, Hrvatska",16.105942,45.8302409
832,"KRALJA ZVONIMIRA 2, VELIKI GRĐEVAC, Hrvatska",15.9061296,45.8103306
833,"MATIJE GUPCA 86, VELIKI GRĐEVAC, Hrvatska",15.9061296,45.8103306
834,"KOLODVORSKA  96, VELIKI GRĐEVAC, Hrvatska",15.9061296,45.8103306
835,"DONJA KOVAČICA 53A, VELIKI GRĐEVAC, Hrvatska",16.1646361,45.8529973
836,"MALA PISANICA 43, VELIKI GRĐEVAC, Hrvatska",16.0910632,45.87864159999999
837,"DRAŽICA 71, VELIKI GRĐEVAC, Hrvatska",15.9835475,45.8067556
838,"GORNJA KOVAČICA 95, VELIKI GRĐEVAC, Hrvatska",16.1206385,45.8678129
839,"ZRINSKA 47, VELIKI GRĐEVAC, Hrvatska",16.1362594,45.8885706
840,"MARTINAC 33, VELIKO TROJSTVO, Hrvatska",15.9766032,45.8095547
841,"MAGLENČA 17, VELIKO TROJSTVO, Hrvatska",16.2486721,46.0334065
842,"KEGLJEVAC 24, VELIKO TROJSTVO, Hrvatska",16.2210202,46.0339119
843,"VRBICA 60, VELIKO TROJSTVO, Hrvatska",16.2436936,46.04813770000001
844,"PAULOVAC, VELIKO TROJSTVO, Hrvatska",16.2387968,46.03896
845,"ĆURLOVAC 101, VELIKO TROJSTVO, Hrvatska",16.2514649,46.018285
846,"DOMINKOVICA 37, VELIKO TROJSTVO, Hrvatska",16.2466173,46.0333007
847,"GRGINAC 60, VELIKO TROJSTVO, Hrvatska",16.8302223,45.741372
848,"MALO TROJSTVO 73, VELIKO TROJSTVO, Hrvatska",16.8560257,45.7381441
849,"VIŠNJEVAC 52, VELIKO TROJSTVO, Hrvatska",16.877367,45.720965
850,"BRAĆE RADIĆ 28, VELIKO TROJSTVO, Hrvatska",16.8551378,45.7086121
851,"ZRINSKI TOPOLOVAC 274, ZRINSKI TOPOLOVAC, Hrvatska",16.8203639,45.7038953
852,"JAKOPOVAC 28, ZRINSKI TOPOLOVAC, Hrvatska",16.7865531,45.6352637
853,"GORNJI KRIŽ 34, ZRINSKI TOPOLOVAC, Hrvatska",16.800867,45.6426162
0,"BREZNIK PLEŠIVIČKI 5, JASTREBARSKO, Hrvatska",16.067043,45.711685
1,"DONJI DESINEC, JASTREBARSKO, Hrvatska",16.067043,45.711685
2,"GORNJI DESINEC, JASTREBARSKO, Hrvatska",16.0685405,45.7104317
3,"MLADINA, JASTREBARSKO, Hrvatska",16.0668033,45.7109307
4,"VINOGRADARSKA 115, JASTREBARSKO, Hrvatska",16.0697135,45.7182871
5,"STANKOVO, JASTREBARSKO, Hrvatska",16.0746526,45.7192344
6,"DONJA REKA 35 A, JASTREBARSKO, Hrvatska",16.0746526,45.7192344
7,"GORNJA REKA, JASTREBARSKO, Hrvatska",16.0576383,45.7226432
8,"ZDIHOVO, JASTREBARSKO, Hrvatska",16.0674921,45.7159355
9,"PAVLOVČANI, JASTREBARSKO, Hrvatska",16.0674921,45.7159355
10,"PLEŠIVICA, JASTREBARSKO, Hrvatska",16.0674921,45.7159355
11,"PRILIPJE, JASTREBARSKO, Hrvatska",16.0752431,45.7142122
12,"VRANOV DOL, JASTREBARSKO, Hrvatska",16.0752431,45.7142122
13,"JURJEVČANI, JASTREBARSKO, Hrvatska",16.0750911,45.71171229999999
14,"MALUNJE, JASTREBARSKO, Hrvatska",16.0752431,45.7142122
15,"ČRNILOVEC, JASTREBARSKO, Hrvatska",16.0674921,45.7159355
16,"CVETKOVIĆ, JASTREBARSKO, Hrvatska",16.0688108,45.7108527
17,"ČABDIN, JASTREBARSKO, Hrvatska",16.0674921,45.7159355
18,"CRNA MLAKA, JASTREBARSKO, Hrvatska",16.0752431,45.7142122
19,"BREBROVAC, JASTREBARSKO, Hrvatska",16.0722794,45.7032778
20,"PETROVINA, JASTREBARSKO, Hrvatska",16.0752431,45.7142122
21,"DRAGOVANŠČAK, JASTREBARSKO, Hrvatska",16.0671199,45.73031330000001
22,"SLAVETIĆ, JASTREBARSKO, Hrvatska",16.0855556,45.7255845
23,"HRAŠĆA, JASTREBARSKO, Hrvatska",16.1011037,45.74421830000001
24,"BELČIĆI, JASTREBARSKO, Hrvatska",15.9415222,45.62626660000001
25,"TOPLICE 4, JASTREBARSKO, Hrvatska",16.1159484,45.634072
26,"BUKOVAC SVETOJANSKI 30, JASTREBARSKO, Hrvatska",15.9526477,45.5822024
27,"MILADINI, JASTREBARSKO, Hrvatska",16.1649177,45.7047315
28,"DRAGA SVETOJANSKA 28, JASTREBARSKO, Hrvatska",16.1204462,45.7507353
29,"GORICA SVETOJANSKA, JASTREBARSKO, Hrvatska",16.0196011,45.7111037
30,"IVANČIĆI, JASTREBARSKO, Hrvatska",16.1458826,45.6954316
31,"KUPEČ DOL 31, JASTREBARSKO, Hrvatska",15.9673397,45.6120106
32,"PRODIN DOL 2, JASTREBARSKO, Hrvatska",16.0012546,45.7156037
33,"GUCI DRAGANIĆKI, JASTREBARSKO, Hrvatska",16.1322004,45.6832945
34,"GORNJA KUPČINA, JASTREBARSKO, Hrvatska",16.0376769,45.704182
35,"ČEGLJE, JASTREBARSKO, Hrvatska",15.9844112,45.6591663
36,"VUKŠIN ŠIPAK, JASTREBARSKO, Hrvatska",15.9759259,45.6064409
37,"DOMAGOVIĆ, JASTREBARSKO, Hrvatska",16.1411598,45.706129
38,"IZIMJE, JASTREBARSKO, Hrvatska",16.101701,45.73202320000001
39,"NOVAKI PETROVINSKI, JASTREBARSKO, Hrvatska",16.0879199,45.75623909999999
40,"VOLAVJE, JASTREBARSKO, Hrvatska",16.0085834,45.6150213
41,"TREŠNJEVKA 4, JASTREBARSKO, JASTREBARSKO, Hrvatska",16.1396238,45.6757358
42,"V.HOLJEVCA 11, JASTREBARSKO, JASTREBARSKO, Hrvatska",16.1238975,45.72361919999999
43,"CVJETNO NASELJE 41, JASTREBARSKO, JASTREBARSKO, Hrvatska",16.1347849,45.7553993
44,"BANA TOME ERDEDIJA BAKAČA 2, JASTREBARSKO, JASTREBARSKO, Hrvatska",16.0248396,45.7066135
45,"DR. FRANJE TUĐMANA 9, JASTREBARSKO, JASTREBARSKO, Hrvatska",16.0745586,45.71407199999999
46,"ZRINSKI-FRANKOPANSKA 13, JASTREBARSKO, JASTREBARSKO, Hrvatska",16.0559618,45.7523272
47,"BRAĆE KAZIĆ 6, JASTREBARSKO, JASTREBARSKO, Hrvatska",16.0964493,45.66544589999999
48,"TRG J.J.STROSSMAYERA 13, JASTREBARSKO, JASTREBARSKO, Hrvatska",16.1259574,45.7015646
49,"VLADKA MAČEKA 2, JASTREBARSKO, JASTREBARSKO, Hrvatska",16.1243752,45.6210075
50,"TOME MIKLOUŠIĆA 2, JASTREBARSKO, JASTREBARSKO, Hrvatska",16.0726561,45.6719191
51,"BOBOVICA, SAMOBOR, Hrvatska",16.0311118,45.6926047
52,"BRASLOVJE, SAMOBOR, Hrvatska",16.1405054,45.652699
53,"ULICA MILANA LANGA 2, SAMOBOR, Hrvatska",16.1501837,45.7160093
54,"ULICA MILANA LANGA 2, SAMOBOR, Hrvatska",16.0998707,45.75010830000001
55,"BREGANICA 6, SAMOBOR, Hrvatska",16.2157615,45.7413349
56,"VIŠNJEVEC PODRVŠKI 7  I, SAMOBOR, Hrvatska",16.1207409,45.6925847
57,"BUDINJAK, SAMOBOR, Hrvatska",16.1630566,45.7451867
58,"GRABAR, SAMOBOR, Hrvatska",16.1176061,45.7725739
59,"GORNJA VAS, SAMOBOR, Hrvatska",16.0224011,45.6334418
60,"CELINE SAMOBORSKE, SAMOBOR, Hrvatska",16.1367631,45.6480437
61,"CERJE SAMOBORSKO, SAMOBOR, Hrvatska",16.0702016,45.6266843
62,"DOMASLOVEC,  DOMASLOVEC 102, SAMOBOR, Hrvatska",16.0547732,45.6442005
63,"DREŽNIK PODOKIĆKI, SAMOBOR, Hrvatska",16.0415831,45.620007
64,"DUBRAVA SAMOBORSKA 34, SAMOBOR, Hrvatska",16.0246069,45.738104
65,"FARKAŠEVEC SAMOBORSKI, SAMOBOR, Hrvatska",16.0302443,45.7362107
66,"GALGOVO,BOGOVIĆEVA 2, SAMOBOR, Hrvatska",15.9489918,45.6106136
67,"GRADNA, SAMOBOR, Hrvatska",16.0726108,45.7127809
68,"GRDANJCI, SAMOBOR, Hrvatska",15.9666043,45.8095156
69,"BEDER 1, SAMOBOR, Hrvatska",15.9666043,45.8095156
70,"KOSTANJEVEC PODVRŠKI 8, SAMOBOR, Hrvatska",15.9804853,45.8074988
71,"JAVOREK, SAMOBOR, Hrvatska",15.9804853,45.8074988
72,"HRASTINA SAMOBORSKA, SAMOBOR, Hrvatska",15.9722512,45.8100437
73,"JARUŠJE, SAMOBOR, Hrvatska",15.9722512,45.8100437
74,"MIRNOVEČKA,BB, SAMOBOR, Hrvatska",15.9842869,45.81121
75,"KLAKE, SAMOBOR, Hrvatska",15.9865498,45.8084874
76,"KLOKOČEVEC SAMOBORSKI, SAMOBOR, Hrvatska",15.9865498,45.8084874
77,"KONŠĆICA, SAMOBOR, Hrvatska",15.9747335,45.808887
78,"LUG SAMOBORSKI, KNEZA DOMAGOJA 1, SAMOBOR, Hrvatska",15.9747335,45.808887
79,"MALA JAZBINA 20/1, SAMOBOR, Hrvatska",15.9977497,45.8095379
80,"MIRNOVEC, SAMOBOR, Hrvatska",15.9977497,45.8095379
81,"MALI LIPOVEC 44, SAMOBOR, Hrvatska",15.9935122,45.8080893
82,"VELIKI LIPOVEC, SAMOBOR, Hrvatska",15.9935122,45.8080893
83,"ŠIPAČKI BREG, ŠIPAČKI BREG 2/1, SAMOBOR, Hrvatska",15.9923357,45.8132137
84,"DRAGONOŠ 16, SAMOBOR, Hrvatska",15.9928602,45.813218
85,"MANJA VAS, SAMOBOR, Hrvatska",15.9666451,45.8076658
86,"MEDSAVE, SAMOBOR, Hrvatska",15.9666451,45.8076658
87,"ŠKOLSKA 6, SAMOBOR, Hrvatska",15.9928602,45.813218
88,"NORŠIĆ SELO, SAMOBOR, Hrvatska",15.9928602,45.813218
89,"OTRUŠEVEC, SAMOBOR, Hrvatska",15.9928602,45.813218
90,"PAVUČNJAK, SAMOBOR, Hrvatska",15.9928602,45.813218
91,"PETKOV BREG, SAMOBOR, Hrvatska",15.9880712,45.8085337
92,"PODGRAĐE PODOKIĆKO 42, SAMOBOR, Hrvatska",15.9880712,45.8085337
93,"PODVRH, SAMOBOR, Hrvatska",15.9606737,45.8095599
94,"RAKOV POTOK,KARLOVAČKA 118, SAMOBOR, Hrvatska",15.9589507,45.8119175
95,"RUDE 93, SAMOBOR, Hrvatska",15.9589507,45.8119175
96,"RUDE 93, SAMOBOR, Hrvatska",15.9816747,45.810349
97,"SAMOBOR, TRG MATICE HRVATSKE 6, SAMOBOR, Hrvatska",15.9816747,45.810349
98,"IV.CVJETNO NASELJE 19, SAMOBOR, Hrvatska",15.9764,45.8157755
99,"SAMOBOR, MILANA LANGA 29, SAMOBOR, Hrvatska",15.9733825,45.8157638
100,"SAMOBOR, SAVKE DABČEVIĆ KUČAR 8, SAMOBOR, Hrvatska",15.9733825,45.8157638
101,"SAMOBOR,GORNJI KRAJ 11, SAMOBOR, Hrvatska",15.9837322,45.837388
102,"SAMOBOR, PERKOVČEVA 90, SAMOBOR, Hrvatska",15.9761004,45.8314815
103,"ULICA IVANA PERKOVCA 90, SAMOBOR, Hrvatska",15.9752116,45.8375151
104,"SAMOBOR, ZAGREBAČKA 30, ULAZ IZ ULICE GRADA WIRGESA, SAMOBOR, Hrvatska",15.9643264,45.8142006
105,"SAMOBOR, HRASTINSKA CESTA BB(SAJMIŠTE), SAMOBOR, Hrvatska",15.9596653,45.8217688
106,"SAMOBOR, IVICE SUDNIKA 11, SAMOBOR, Hrvatska",15.9682373,45.8287045
107,"SAMOBOR, ULICA IVANA GUNDULIĆA 2 A, SAMOBOR, Hrvatska",15.9795805,45.8196771
108,"SAMOBOR, HEBRANGOVA 26, SAMOBOR, Hrvatska",15.9842646,45.8242668
109,"SAMOBORSKI OTOK, TRG SVETOG NIKOLE 3, SAMOBOR, Hrvatska",15.9784243,45.8220824
110,"SLANI DOL 1, SAMOBOR, Hrvatska",15.9774325,45.8263334
111,"VRATNIK SAMOBORSKI, VRATNIK 19, SAMOBOR, Hrvatska",15.994052,45.81483730000001
112,"DRAGANJE SELO 38, SAMOBOR, Hrvatska",15.9906132,45.8159068
113,"SAVRŠĆAK, SAMOBOR, Hrvatska",15.9797765,45.818208
114,"SMEROVIŠĆE, SAMOBOR, Hrvatska",15.9596653,45.8217688
115,"SV. MARTIN POD OKIĆEM, SAMOBOR, Hrvatska",15.9596653,45.8217688
116,"NOVO SELO ŽUMBERAČKO 26, SAMOBOR, Hrvatska",15.9589507,45.8119175
117,"POKLEK 24, SAMOBOR, Hrvatska",15.9876329,45.8182488
118,"STOJDRAGA 27, SAMOBOR, Hrvatska",15.9688531,45.8199014
119,"MIRNOVEC, SAMOBOR, Hrvatska",15.9714367,45.8237871
120,"VRBOVEC SAMOBORSKI 79, SAMOBOR, Hrvatska",15.967129,45.84367229999999
121,"VRHOVČAK SAMOBORSKI, SAMOBOR, Hrvatska",15.9589507,45.8119175
122,"BESTOVJE, PRUDNJACI 1, SVETA NEDELJA, Hrvatska",15.9876329,45.8182488
123,"BESTOVJE,PRUDNJACI 1, SVETA NEDELJA, Hrvatska",15.9876329,45.8182488
124,"BREZJE, F. GREDELJA 4, SVETA NEDELJA, Hrvatska",15.9625446,45.7960859
125,"KERESTINEC, MATE LOVRAKA 3, SVETA NEDELJA, Hrvatska",15.9625446,45.7960859
126,"KERESTINEC,MATE LOVRAKA 3, SVETA NEDELJA, Hrvatska",15.9640291,45.7912781
127,"MALA GORICA, ULICA AUGUSTA ŠENOE 34, SVETA NEDELJA, Hrvatska",15.9999629,45.8017942
128,"TRG ANTE STARČEVIĆA 5, SVETA NEDELJA, Hrvatska",15.993509,45.7973522
129,"SVETONEDELJSKI BREG 45, SVETA NEDELJA, Hrvatska",15.993509,45.7973522
130,"JAGNJIĆ DOL, JAGNJIĆ DOL 86, SVETA NEDELJA, Hrvatska",15.993509,45.7973522
131,"NOVAKI, NOVAČKA 16, SVETA NEDELJA, Hrvatska",15.993509,45.7973522
132,"NOVAKI, NOVAČKA 16, SVETA NEDELJA, Hrvatska",15.964769,45.8021997
133,"OREŠJE, TRG LIPA 1, SVETA NEDELJA, Hrvatska",15.9829428,45.8012395
134,"RAKITSKA ULICA 4, SVETA NEDELJA, Hrvatska",15.9734495,45.79812039999999
135,"RAKITSKA ULICA 4, SVETA NEDELJA, Hrvatska",15.9587555,45.7920914
136,"STRMEC, ŠKOLSKA 13, SVETA NEDELJA, Hrvatska",15.9989563,45.7999146
137,"STRMEC, ŠKOLSKA 13, SVETA NEDELJA, Hrvatska",15.9989563,45.7999146
138,"STRMEC,ŠKOLSKA 13, SVETA NEDELJA, Hrvatska",15.9989563,45.7999146
139,"KARLOVAČKA CESTA 195B, ZAGREB - VI. IZBORNA JEDINICA, Hrvatska",15.9989563,45.7999146
140,"KARLOVAČKA CESTA 195B, ZAGREB - VI. IZBORNA JEDINICA, Hrvatska",15.9989563,45.7999146
